id,FT10_mean,FT10_sd,FT16_mean,FT16_sd,seq_by,name,country,sitename,latitude,longitude,collector,collectiondate,CS_number,group,relict,icon
10000,61,4.0824829046,54.5,7.047458171,,Tuescha-9,GER,Tuebingen - Schaal,48.53,9.05,,1999-12-30 0:00:00,,,,
100000,71.6666666667,1.5275252317,48.25,2.753785274,,Wil-1,LTU,Wil,54.6833,25.3167,Magnus Nordborg,,CS78702,,,
10001,68.75,4.1932485418,49.5,3.31662479,MPI,TueV-13,GER,Tubingen - Volksbank,48.52,9.05,Kirsten Bomblies,1999-12-30 0:00:00,CS76407,western_europe,,blu_circle
10002,61,7.3484692283,42.5,0.577350269,MPI,TueWal-2,GER,Tubingen - Wanne,48.53,9.04,Kirsten Bomblies,1999-12-30 0:00:00,CS76405,western_europe,,blu_circle
10003,81.25,8.0570879768,57.66666667,1.154700538,,WalHaesB4,GER,Walddorf-Haslach,48.6,9.19,,1999-12-30 0:00:00,,,,
10004,81.75,3.2015621187,79,9,MPI,Bolin-1,ROU,,44.46,25.74,,1999-12-30 0:00:00,CS76373,italy_balkan_caucasus,,wht_circle
10005,76.6666666667,4.0414518843,67.25,6.34428877,MPI,Copac-1,ROU,,46.11,21.95,,1999-12-30 0:00:00,CS76420,central_europe,,ylw_circle
10006,113.5,10.4721853816,131.5,3.535533906,MPI,Kastel-1,UKR,Kastel Mountain,44.6419,34.3814,James Beck,1999-12-30 0:00:00,CS76395,italy_balkan_caucasus,,wht_circle
10007,75,8.8881944173,61.25,5.909032634,,Koch-1,UKR,Kocherov,50.3553,29.3244,James Beck,1999-12-30 0:00:00,,,,
10008,79.25,7.1355915429,73,3,MPI,Sij-1,UZB,Sijjak,41.45,70.05,Heike Schmuths,1999-12-30 0:00:00,CS76379,asia,,purple_circle
10009,80.75,10.3400515795,77.75,3.5,MPI,Sij-2,UZB,,41.45,70.05,,12/30/99,CS76380,asia,,purple_circle
10010,85,7.0710678119,75.25,5.439056291,MPI,Sij-4,UZB,,41.45,70.05,,12/30/99,CS76381,asia,,purple_circle
10011,71,2.4494897428,65.25,6.130524719,MPI,Yeg-1,ARM,Yeghegis,39.8692,45.3622,James Beck,1999-12-30 0:00:00,CS76394,asia,,purple_circle
10012,113.5,10.7238052948,105.6666667,7.767453465,MPI,Istisu-1,AZE,Istisu,38.9786,48.5594,James Beck,1999-12-30 0:00:00,CS76389,italy_balkan_caucasus,,wht_circle
10013,92.25,3.3040379336,100,15.62049935,MPI,Lerik1-3,AZE,Lerik,38.7406,48.6131,James Beck,,CS76388,italy_balkan_caucasus,,wht_circle
10014,96.75,8.5,132,4.242640687,MPI,Xan-1,AZE,Xanbulan,38.6536,48.7992,James Beck,1999-12-30 0:00:00,CS76387,italy_balkan_caucasus,,wht_circle
10015,69.75,7.5443135318,51.25,6.898067362,MPI,Ara-1,AFG,,37.29,71.3,,1999-12-30 0:00:00,CS76382,asia,,purple_circle
10016,89,5.2915026221,72,12.0277457,,Del-10,SRV,Deliblato,44.9444,21.1828,James Beck,1999-12-30 0:00:00,,,,
10017,87.5,3,76.5,9.88264472,MPI,Petro-1,SRB,,44.34,21.46,,1999-12-30 0:00:00,CS76370,central_europe,,ylw_circle
10018,90,4.2426406871,81.33333333,4.509249753,MPI,Dobra-1,SRB,,44.84,20.16,,12/30/99,CS76369,central_europe,,ylw_circle
10019,60.5,6.8556546004,42,1.154700538,,KZ10,KAZ,,48.67,54.93,,1999-12-30 0:00:00,,,,
1002,102.75,6.3966136875,86.25,1.707825128,GMI,Ale-Stenar-64-24,SWE,Ales Stenar,55.3833,14.05,Jon Ågren,2001-01-01 00:00:00,CS76654,south_sweden,,red_circle
10020,72.5,4.1231056256,48,1.414213562,MPI,Jl-2,CZE,,49.17,16.5,,1999-12-30 0:00:00,CS76956,central_europe,,ylw_circle
10021,59.5,8.8128693776,44,10.03327796,,Hl-0,GER,Holtensen,52.1444,9.37827,Albert Kranz,1999-12-30 0:00:00,,,,
10022,73.5,8.8506120316,45.25,2.62995564,MPI,Uk-3,GER,Umkirch,48.0333,7.7667,Albert Kranz,1999-12-30 0:00:00,CS78777,admixed,,forbidden
10023,96.25,6.2383224241,90,4.242640687,MPI,Strand-1,,,,,,12/30/99,CS77284,admixed,,forbidden
10024,64,1.8257418584,43.25,1.5,,Tnz-1,TZA,,,,,12/30/99,,,,
10025,62.25,3.3040379336,45.5,1.290994449,,Bsch-2,GER,Buchschlag/Frankfurt am Main,50.01,8.67,,1999-12-30 0:00:00,,,,
10026,63,4.9665548086,49.5,1.290994449,,Bg-5,USA,BG,47.6479,-122.305,Juliette Winterer,1999-12-30 0:00:00,,,,
1061,97.75,5.5,94.75,2.5,GMI,Brösarp-11-135,SWE,Brösarp,55.7167,14.1333,Jon Ågren,2001-01-01 0:00:00,CS76727,south_sweden,,red_circle
1062,94,7.5277265271,68.25,2.5,GMI,Brösarp-15-138,SWE,Brösarp,55.7167,14.1333,Jon Ågren,2001-01-01 0:00:00,CS76728,south_sweden,,red_circle
1063,84,3,64.25,2.217355783,GMI,Brösarp-21-140,SWE,Brösarp,55.7167,14.1333,Jon Ågren,2001-01-01 0:00:00,CS76729,south_sweden,,red_circle
1066,128,11.2842072532,NA,NA,GMI,Brösarp-34-145,SWE,Brösarp,55.7167,14.1333,Jon Ågren,2001-01-01 00:00:00,CS76730,south_sweden,,red_circle
1074,98.25,6.0207972894,90.75,26.00480725,,Brösarp-61-162,SWE,Brösarp,55.7167,14.1333,Jon Ågren,2001-01-01 0:00:00,,,,
108,70,1.7320508076,52.25,6.5,Monsanto,LDV-18,FRA,LDV,48.5167,-4.06667,Valerie Le Corre,,CS77013,western_europe,,blu_circle
1137,111.25,4.5,107.6666667,18.58314649,,Gårdby-22-213,SWE,Gårdby,56.6167,16.65,Jon Ågren,2003-01-01 0:00:00,,,,
1158,98.75,4.5734742447,88,6.218252702,GMI,Aledal-6-49,SWE,Aledal,56.7,16.5167,Jon Ågren,2003-01-01 0:00:00,CS76656,south_sweden,,red_circle
1254,92,1.7320508076,106,16.64331698,GMI,Tos-82-387,SWE,Tos,59.4333,17.0167,Jon Ågren,2001-01-01 0:00:00,CS77379,north_sweden,,orange_circle
1257,94.6666666667,12.5830573921,93.25,10.65754819,GMI,Tos-95-393,SWE,Tos,59.4333,17.0167,Jon Ågren,2001-01-01 0:00:00,CS77380,north_sweden,,orange_circle
1317,104.25,5.2519837522,102,3,GMI,Ängsö-74-430,SWE,Ängsö,59.5667,16.8667,Jon Ågren,2001-01-01 0:00:00,CS76665,admixed,,forbidden
1318,89.75,10.3400515795,123,19.5192213,,Ängsö-80-432,SWE,Ängsö,59.5667,16.8667,Jon Ågren,2001-01-01 00:00:00,,,,
1363,104.75,13.0479883507,96,12.88409873,,Ham-7-233,SWE,Ham,59.7833,17.5833,Jon Ågren,2004-01-01 00:00:00,,,,
1367,101.75,4.9916597106,88.75,3.593976442,,Ham-13-241,SWE,Ham,59.7833,17.5833,Jon Ågren,2004-01-01 00:00:00,,,,
139,68.75,9.9121138008,52.75,5.057996968,Monsanto,LDV-46,FRA,LDV,48.5167,-4.06667,Valerie Le Corre,,CS77014,western_europe,,blu_circle
1435,72.25,2.8722813233,45.66666667,0.577350269,,Röd-17-319,SWE,Röd,62.8,18.2,Jon Ågren,2003-01-01 00:00:00,,,,
1552,104,5.6568542495,115.3333333,17.61628035,GMI,Sku-30,SWE,Sku,63.0833,18.3667,Jon Ågren,2003-01-01 0:00:00,CS77251,north_sweden,,orange_circle
1585,103.5,6.8556546004,103.25,13.1497782,,Hen-16-268,SWE,Hen,65.25,15.6,Jon Ågren,1996-01-01 00:00:00,,,,
159,72,0.8164965809,56.75,1.892969449,Monsanto,MAR2-3,FRA,MAR2,47.35,3.93333,Valerie Le Corre,,CS77070,western_europe,,blu_circle
1829,94.75,2.7537852736,99,NA,Monsanto,Mdn-1,USA,Mdn,42.051,-86.509,Diane Byers,2002-05-01 00:00:00,CS77077,germany,,ltblu_circle
1853,71.5,2.0816659995,69.33333333,5.131601439,Monsanto,MNF-Pot-21,USA,MNF-Potter,43.595,-86.2657,Diane Byers,2004-06-05 00:00:00,CS77099,germany,,ltblu_circle
1872,80.25,7.0887234394,82.5,5.066228051,Monsanto,MNF-Pot-75,USA,MNF-Potter,43.595,-86.2657,Diane Byers,2004-06-05 00:00:00,CS77100,germany,,ltblu_circle
1890,101,22.0605228104,75.75,6.800735254,Monsanto,MNF-Riv-21,USA,MNF River,43.5139,-86.1859,Diane Byers,2004-06-05 00:00:00,CS77101,asia,,purple_circle
1925,89.5,5.9721576224,89.5,13,Monsanto,MNF-Che-2,USA,MNF-Cherry,43.5251,-86.1843,Diane Byers,2004-06-05 00:00:00,CS77096,germany,,ltblu_circle
1954,93,2.7080128015,101,4.242640687,Monsanto,MNF-Jac-12,USA,MNF-Jack,43.5187,-86.1739,Diane Byers,2004-06-05 00:00:00,CS77097,germany,,ltblu_circle
2016,77.5,7.1879528843,69.75,12.89379696,Monsanto,MNF-Pin-39,USA,MNF-Pine,43.5356,-86.1788,Diane Byers,2004-06-05 00:00:00,CS77098,admixed,,forbidden
2171,79,1.6329931619,82.5,10.78579312,Monsanto,Paw-26,USA,Paw,42.148,-86.431,Diane Byers,2002-05-01 00:00:00,CS77164,germany,,ltblu_circle
2202,97.75,6.3966136875,96.5,5.446711546,Monsanto,Pent-23,USA,Pent,43.7623,-86.3929,Diane Byers,2004-06-04 00:00:00,CS77168,admixed,,forbidden
2276,83,6.582805886,84.25,6.184658438,Monsanto,SLSP-31,USA,SLSP,43.665,-86.496,Diane Byers,2004-06-04 00:00:00,CS77254,admixed,,forbidden
2278,79.25,4.3493294502,85,11.53256259,Monsanto,SLSP-35,USA,SLSP,43.665,-86.496,Diane Byers,2004-06-04 00:00:00,CS77255,germany,,ltblu_circle
2317,77,3.559026084,53.5,6.8556546,Monsanto,Ste-40,USA,Ste,42.03,-86.514,Diane Byers,2002-05-01 00:00:00,CS77278,admixed,,forbidden
265,63.5,5.4467115461,47.25,5.377421935,Monsanto,PYL-6,FRA,PYL,44.65,-1.16667,Valerie Le Corre,,CS77198,admixed,,forbidden
350,68.5,3.4156502553,51.5,4.041451884,Monsanto,TOU-A1-88,FRA,TOU-A1,46.6667,4.11667,Fabrice Roux,,CS77382,western_europe,,blu_circle
351,69.25,3.2015621187,65.33333333,2.516611478,Monsanto,TOU-A1-89,FRA,TOU-A1,46.6667,4.11667,Fabrice Roux,,CS77383,western_europe,,blu_circle
403,63.5,6.8068592856,54.25,2.753785274,Monsanto,Zdarec3,CZE,Zda-2,49.3667,16.2667,Marie-Theres Hauser,,CS78873,central_europe,,ylw_circle
410,76,5.2915026221,65.25,4.5,Monsanto,Doubravnik7,CZE,Dou,49.4211,16.3497,Marie-Theres Hauser,,CS76808,central_europe,,ylw_circle
424,83.25,3.3040379336,68.25,7.804912983,Monsanto,Draha2,CZE,Dra-1,49.4112,16.2815,Marie-Theres Hauser,,CS76812,central_europe,,ylw_circle
428,75.75,8.139410298,59,6.244997998,Monsanto,Borky1,CZE,Borky,49.403,16.232,Marie-Theres Hauser,,CS76718,central_europe,,ylw_circle
430,92.3333333333,2.8867513459,55,2.309401077,Salk,Gr-1,AUT,Graz,47,15.5,Albert Kranz,,CS76496,central_europe,,ylw_circle
4779,68.6666666667,3.0550504633,50.25,2.5,Monsanto,UKSW06-179,UK,St Columb,50.4,-4.9,Eric Holub,2006-05-11 00:00:00,CS78808,western_europe,,blu_circle
4807,79.75,6.8980673622,87.5,20.20725942,Monsanto,UKSW06-207,UK,Indian Queen,50.4,-4.9,Eric Holub,2006-05-11 00:00:00,CS78809,western_europe,,blu_circle
4826,60,1.4142135624,51,3,Monsanto,UKSW06-226,UK,St Dennis,50.4,-4.9,Eric Holub,2006-05-11 00:00:00,CS78810,western_europe,,blu_circle
4884,70.25,6.6520673478,49.5,1,Monsanto,UKSW06-285,UK,St Stephens,50.3,-4.9,Eric Holub,2006-05-11 00:00:00,CS78811,western_europe,,blu_circle
4900,71,3.559026084,50.25,0.957427108,Monsanto,UKSW06-302,UK,St Austel,50.3,-4.8,Eric Holub,2006-05-11 00:00:00,CS78812,western_europe,,blu_circle
4931,62.75,1.8929694486,48,2.449489743,,UKSW06-333,UK,Fowey,50.327643,-4.6,Eric Holub,2006-05-12 00:00:00,,,,
4958,91.25,4.6457866216,100.25,5.123475383,Monsanto,UKSW06-360,UK,Liskeard,50.5,-4.5,Eric Holub,2006-05-12 00:00:00,CS78814,western_europe,,blu_circle
5023,61,1.6329931619,43.75,0.957427108,Monsanto,UKSE06-118,UK,East Malling Research Station,51.3,0.5,Eric Holub,2006-05-05 00:00:00,CS78799,western_europe,,blu_circle
5104,60,2.9439202888,40.75,7.5,Monsanto,UKSE06-252,UK,East Malling village,51.3,0.5,Eric Holub,2006-05-23 00:00:00,CS78800,germany,,ltblu_circle
5151,81.75,8.1802607945,73.66666667,4.932882862,Monsanto,UKSE06-325,UK,West Malling village,52.2,-1.7,Eric Holub,2006-05-05 00:00:00,CS78801,admixed,,forbidden
5165,86.5,8.5829287931,81.75,2.753785274,Monsanto,UKSE06-362,UK,Wateringbury,51.3,0.4,Eric Holub,2006-05-05 00:00:00,CS78802,admixed,,forbidden
5210,96,6.2449979984,78,2.943920289,Monsanto,UKSE06-432,UK,Tonbridge castle,51.2,0.3,Eric Holub,2006-05-23 00:00:00,CS78803,western_europe,,blu_circle
5236,58.5,3.6968455021,43.5,2.380476143,Monsanto,UKSE06-470,UK,Paddock Wood,51.2,0.4,Eric Holub,2006-05-23 00:00:00,CS78804,western_europe,,blu_circle
5253,62.75,3.7749172176,38,2.160246899,Monsanto,UKSE06-500,UK,Sissinghurst Castle garden,51.1,0.6,Eric Holub,2006-05-23 00:00:00,CS78805,western_europe,,blu_circle
5276,74.5,5.3229064742,49.75,2.62995564,Monsanto,UKSE06-533,UK,Cnt,51.3,1.1,Eric Holub,2006-05-05 00:00:00,CS78806,western_europe,,blu_circle
5349,92,5.4160256031,97.33333333,7.234178138,Monsanto,UKSE06-639,UK,Scotney Castle,51.1,0.4,Eric Holub,2006-05-23 00:00:00,CS78807,western_europe,,blu_circle
5353,71,5.3541261347,62.5,9.110433579,Monsanto,UKNW06-003,UK,"Dove Cottage,Wordsworth Trust, nr Grasmere",54.5,-3,Eric Holub,2006-06-08 00:00:00,CS78792,western_europe,,blu_circle
5470,154.6666666667,30.4357246231,NA,NA,,UKNW06-212,UK,Thirlmere,54.7,-3.4,Eric Holub,2006-06-08 00:00:00,,,,
5486,60.5,3,37.5,1.732050808,Monsanto,UKNW06-233,UK,High Lorton,54.6,-3.3,Eric Holub,2006-06-08 00:00:00,CS78794,germany,,ltblu_circle
5506,125,10.295630141,132,NA,,UKNW06-281,UK,Borrowdale,54.6,-3.1,Eric Holub,2006-06-08 00:00:00,,,,
5535,81.5,5.8022983952,70.75,2.62995564,,UKNW06-354,UK,Keswick,54.6,-3.1,Eric Holub,2006-06-08 00:00:00,,,,
5577,66.75,3.0956959368,51,1.154700538,Monsanto,UKNW06-403,UK,Cockermouth,54.7,-3.4,Eric Holub,2006-06-08 00:00:00,CS78797,western_europe,,blu_circle
5644,60.75,5.3150729064,46.25,6.130524719,Monsanto,UKNW06-481,UK,Windemere,54.4,-2.9,Eric Holub,2006-06-08 00:00:00,CS78798,western_europe,,blu_circle
5720,92,6.3770421566,63.33333333,2.081665999,Monsanto,Cal-2,UK,Cal,53.3,-1.6,D. Ratcliffe,1954-01-01 00:00:00,CS78781,admixed,,forbidden
5726,74,3.1622776602,48,2.160246899,Monsanto,Cnt-1,UK,Canterbury (Sullivan garden),51.3,1.1,Eric Holub,1992-01-01 00:00:00,CS78782,western_europe,,blu_circle
5741,97.25,4.0311288741,88.5,13.3041347,Monsanto,For-2,UK,Fortingall,56.6,-4.1,D. Ratcliffe,1959-01-01 00:00:00,CS78783,western_europe,,blu_circle
5748,60.75,2.7537852736,41.75,2.986078811,Monsanto,Kil-0,UK,Killearn,56,-4.4,D. Ratcliffe,1959-01-01 00:00:00,CS78784,germany,,ltblu_circle
5757,87.75,1.8929694486,66.66666667,4.041451884,Monsanto,Mc-1,UK,Mickell’s Fell,54.6,-2.3,D. Ratcliffe,1960-01-01 00:00:00,CS78785,admixed,,forbidden
5768,96.25,5.123475383,85,7,"Monsanto,MPI",UKID63,UK,Ripon,54.1,-1.5,Eric Holub,1992-01-01 0:00:00,CS78786,admixed,,forbidden
5772,66.75,2.6299556397,49,2,Monsanto,Set-1,UK,Settle,54.1,-2.3,D. Ratcliffe,1955-01-01 00:00:00,CS78787,admixed,,forbidden
5778,66.25,5.5602757725,42.5,1.290994449,,Sna-1,UK,Snape Malting,52.2,1.5,Eric Holub,1992-01-01 0:00:00,,,,
5779,90.5,4.4347115652,67,3.464101615,Monsanto,UKID74,UK,Taunton,51,-3.1,Eric Holub,1992-01-01 00:00:00,CS78789,western_europe,,blu_circle
5784,101.75,5.9090326337,69.25,4.031128874,Monsanto,Ty-1,UK,Taynuilt,56.4,-5.2,D. Ratcliffe,1961-01-01 00:00:00,CS78790,admixed,,forbidden
5800,61.75,4.1129875598,39,2,Monsanto,UKID96,UK,Lochcarron (Barlow),57.4,-5.5,Eric Holub,1995-01-01 00:00:00,CS78791,germany,,ltblu_circle
5811,72,6.6833125519,46,2.449489743,Monsanto,UKID107,UK,Chirk,52.9,-3.1,Eric Holub,1995-01-01 00:00:00,CS78778,admixed,,forbidden
5818,65.75,2.8722813233,40.33333333,1.527525232,,UKID114,UK,Tring (N.History Museum),51.8,-0.6,Eric Holub,1995-01-01 00:00:00,,,,
5822,112.75,7.1355915429,111,7.071067812,Monsanto,UKID116,UK,Ardtoe,56.7333,-5.98333,Eric Holub,1995-01-01 00:00:00,CS78780,admixed,,forbidden
5829,66.75,11.7295922066,53.66666667,2.081665999,,Ale1-2,SWE,Ale1,55.38383,14.06125,Magnus Nordborg,2000-06-01 00:00:00,,,,
5830,97.75,1.7078251277,75.33333333,6.658328118,GMI,App1-12,SWE,App1,56.3333,15.9667,Magnus Nordborg,2000-06-13 00:00:00,CS76667,south_sweden,,red_circle
5831,99.5,6.3508529611,93,8.679477711,GMI,App1-14,SWE,App1,56.3333,15.9667,Magnus Nordborg,2000-06-13 00:00:00,CS76668,south_sweden,,red_circle
5832,88.5,4.5092497528,87.33333333,3.511884584,GMI,App1-16,SWE,App1,56.3333,15.9667,Magnus Nordborg,2000-06-13 00:00:00,CS76669,south_sweden,,red_circle
5835,73,5.7154760665,43.5,5.066228051,,Bil-3,SWE,Bil,63.324,18.484,Magnus Nordborg,2000-06-25 00:00:00,,,,
5837,80.5,10.7857931249,55.25,1.5,Salk,Bor-1,CZE,Bor,49.4013,16.2326,Jirina Relichov,2000-05-31 0:00:00,CS76453,central_europe,,ylw_circle
5856,119,18.3847763109,NA,NA,GMI,Dör-10,SWE,Dör,63.0167,17.4914,Magnus Nordborg,2000-06-25 00:00:00,CS76806,north_sweden,,orange_circle
5865,109.75,8.0570879768,101,3,GMI,Dra1-4,SWE,Dra1,55.76,14.12,Magnus Nordborg,2000-06-01 0:00:00,CS76809,south_sweden,,red_circle
5867,130.5,1,NA,NA,GMI,Dra2-1,SWE,Dra2,55.76,14.12,Magnus Nordborg,2000-06-01 00:00:00,CS76810,south_sweden,,red_circle
5874,78,4.9665548086,69.25,6.652067348,Monsanto,DraII-6,CZE,DraII,49.4112,16.2815,Jirina Relichov,2000-05-31 00:00:00,CS76814,central_europe,,ylw_circle
5890,78.25,5.6199051,55.25,3.201562119,Monsanto,DraIV 1-8,CZE,DraIV 1,49.4112,16.2815,Jirina Relichov,2004-01-01 00:00:00,CS76817,central_europe,,ylw_circle
5893,73.75,6.0207972894,64.25,4.11298756,Monsanto,DraIV 1-11,CZE,DraIV 1,49.4112,16.2815,Jirina Relichov,2004-01-01 00:00:00,CS76816,central_europe,,ylw_circle
5907,66.5,3.8729833462,48.5,3.109126351,Monsanto,DraIV 2-9,CZE,DraIV 2,49.4112,16.2815,Jirina Relichov,2004-01-01 00:00:00,CS76818,central_europe,,ylw_circle
5921,82.5,6.5574385243,55.75,1.707825128,Monsanto,DraIV 3-7,CZE,DraIV 3,49.4112,16.2815,Jirina Relichov,2004-01-01 00:00:00,CS76819,central_europe,,ylw_circle
5950,81.25,4.2720018727,65.5,4.725815626,Monsanto,DraIV 5-12,CZE,DraIV 5,49.4112,16.2815,Jirina Relichov,2004-01-01 00:00:00,CS76820,central_europe,,ylw_circle
5964,72.5,3.7859388972,56.5,2.645751311,,DraIV 5-28,CZE,DraIV 5,49.4112,16.2815,Jirina Relichov,2004-01-01 00:00:00,,,,
5984,66.75,3.5939764421,41.75,2.217355783,Monsanto,DraIV 6-13,CZE,DraIV 6,49.4112,16.2815,Jirina Relichov,2004-01-01 00:00:00,CS76822,central_europe,,ylw_circle
5993,82.5,9.7467943448,64.75,1.707825128,Monsanto,DraIV 6-22,CZE,DraIV 6,49.4112,16.2815,Jirina Relichov,2004-01-01 00:00:00,CS76823,central_europe,,ylw_circle
6008,73.5,2.3804761428,43,0.816496581,Salk,Duk,CZE,Duk,49.1,16.2,Jirina Relichov,2000-05-31 0:00:00,CS76824,central_europe,,ylw_circle
6009,103,11.6332855777,113.5,0.707106781,GMI,Eden-1,SWE,Eden,62.877,18.177,Magnus Nordborg,2000-06-25 00:00:00,CS76826,north_sweden,,orange_circle
6011,97.3333333333,5.1316014394,112.5,12.02081528,GMI,Eden-6,SWE,Eden,62.877,18.177,Magnus Nordborg,2000-06-25 0:00:00,CS76828,north_sweden,,orange_circle
6012,102,9.3094933625,125,18.38477631,GMI,Eden-7,SWE,Eden,62.877,18.177,Magnus Nordborg,2000-06-25 00:00:00,CS76829,north_sweden,,orange_circle
6013,93.75,2.2173557826,93,8.082903769,GMI,Eden-9,SWE,Eden,62.877,18.177,Magnus Nordborg,2000-06-25 00:00:00,CS76830,north_sweden,,orange_circle
6016,87.3333333333,5.6862407031,83.5,0.707106781,GMI,Eds-1,SWE,Eds,62.9,18.4,Magnus Nordborg,2000-06-25 00:00:00,CS76834,north_sweden,,orange_circle
6017,96.5,2.1213203436,104,NA,GMI,Eds-9,SWE,Eds,62.9,18.4,Magnus Nordborg,2000-06-25 00:00:00,CS76835,north_sweden,,orange_circle
6019,103.5,4.5092497528,NA,NA,GMI,Fjä1-2,SWE,Fjä1,56.06,14.29,Magnus Nordborg,2000-05-14 00:00:00,CS76860,south_sweden,,red_circle
6020,94,4.3588989435,87.25,5.251983752,GMI,Fjä1-5,SWE,Fjä1,56.06,14.29,Magnus Nordborg,2000-05-14 00:00:00,CS76861,south_sweden,,red_circle
6021,94.25,3.4034296428,87,7.257180352,GMI,Fjä2-4,SWE,Fjä2,56.06,14.29,Magnus Nordborg,2000-05-14 00:00:00,CS76862,south_sweden,,red_circle
6023,93.75,6.6520673478,89.25,7.889866919,GMI,Fly2-1,SWE,Fly2,55.7509,13.3712,Magnus Nordborg,1998-06-01 00:00:00,CS76863,south_sweden,,red_circle
6024,106.75,5.123475383,116,12.83225104,GMI,Fly2-2,SWE,Fly2,55.7509,13.3712,Magnus Nordborg,1999-05-16 00:00:00,CS76864,south_sweden,,red_circle
6025,129.25,20.4022057631,NA,NA,GMI,Gro-3,SWE,Gro,62.6437,17.7339,Magnus Nordborg,2000-06-25 00:00:00,CS76889,north_sweden,,orange_circle
6030,107.25,7.6321687612,129,7.071067812,GMI,Grön-5,SWE,Grön,62.806,18.1896,Magnus Nordborg,2000-06-25 00:00:00,CS76893,north_sweden,,orange_circle
6034,102.75,12.816005618,80.5,3.535533906,GMI,Hov1-7,SWE,Hov1,56.1,13.74,Magnus Nordborg,2000-05-12 00:00:00,CS76932,south_sweden,,red_circle
6035,83,2.9439202888,73.75,3.304037934,GMI,Hov1-10,SWE,Hov1,56.1,13.74,Magnus Nordborg,2000-05-12 00:00:00,CS76931,south_sweden,,red_circle
6036,94.25,8.2613558209,86.33333333,6.806859286,GMI,Hov3-2,SWE,Hov3,56.1,13.74,Magnus Nordborg,2000-05-12 00:00:00,CS76934,south_sweden,,red_circle
6038,91.25,6.6520673478,77.25,8.770214745,GMI,Hov3-5,SWE,Hov3,56.1,13.74,Magnus Nordborg,2000-05-12 00:00:00,CS76935,south_sweden,,red_circle
6039,91,23.3666428911,62,7.071067812,GMI,Hovdala-2,SWE,Hovdala,56.1,13.74,Torbjorn Sall,1999-01-01 00:00:00,CS76937,admixed,,forbidden
6040,93.25,4.5734742447,82.5,7.778174593,GMI,Kni-1,SWE,Kni1,55.66,13.4,Magnus Nordborg,2001-06-05 00:00:00,CS76970,south_sweden,,red_circle
6041,78.75,9.1787798753,51.5,1.732050808,GMI,Lis-3,SWE,Lis,56.0328,14.775,Magnus Nordborg,2000-06-13 00:00:00,CS77044,south_sweden,,red_circle
6042,63.5,3.5355339059,43,2.309401077,GMI,Lom1-1,SWE,Lom1,56.09,13.9,Magnus Nordborg,2001-05-14 00:00:00,CS77048,admixed,,forbidden
6043,110,5.5677643628,130.6666667,6.506407099,GMI,Löv-1,SWE,Löv,62.801,18.079,Magnus Nordborg,2000-06-25 00:00:00,CS77049,north_sweden,,orange_circle
6046,117.25,4.9244289009,117,NA,GMI,Löv-5,SWE,Löv,62.801,18.079,Magnus Nordborg,2000-06-25 00:00:00,CS77050,north_sweden,,orange_circle
6064,103.6666666667,7.3711147958,129.5,13.43502884,GMI,Nyl-2,SWE,Nyl,62.9513,18.2763,Magnus Nordborg,2000-06-25 00:00:00,CS77136,north_sweden,,orange_circle
6069,107.25,8.5391256383,139,NA,GMI,Nyl-7,SWE,Nyl,62.9513,18.2763,Magnus Nordborg,2000-06-25 00:00:00,CS77137,north_sweden,,orange_circle
6070,106.75,7.3654599313,119.3333333,3.214550254,GMI,Omn-1,SWE,Omn,62.9308,18.3448,Magnus Nordborg,2000-06-25 00:00:00,CS77145,north_sweden,,orange_circle
6071,120.75,6.6520673478,139.5,3.535533906,GMI,Omn-5,SWE,Omn,62.9308,18.3448,Magnus Nordborg,2000-06-25 00:00:00,CS77146,north_sweden,,orange_circle
6073,102.25,3.5939764421,96.5,3.31662479,GMI,ÖMö1-7,SWE,ÖMö1,56.1481,15.8155,Magnus Nordborg,2001-06-09 00:00:00,CS77147,south_sweden,,red_circle
6074,101,1.4142135624,85.75,12.91962332,GMI,Ör-1,SWE,Örrevet,56.4573,16.1308,Magnus Nordborg,2000-06-13 0:00:00,CS77150,south_sweden,,red_circle
6076,121.5,1.7320508076,110.5,19.12241268,GMI,Rev-2,SWE,Rev2,55.6942,13.4504,Magnus Nordborg,1999-05-16 00:00:00,CS77215,south_sweden,,red_circle
6085,124.25,16.3375844808,128,15.55634919,GMI,Sparta-1,SWE,Sparta (Student corridor),55.7097,13.2145,Magnus Nordborg,2003-01-01 00:00:00,CS77260,south_sweden,,red_circle
6086,100.5,5.1961524227,100.75,4.573474245,GMI,Sr:3,SWE,Sr,58.9,11.2,Ivo Cetl,1992-07-01 00:00:00,CS77267,admixed,,forbidden
6088,107.6666666667,5.1316014394,128,NA,GMI,Stu1-1,SWE,Stu1,56.4666,16.1284,Magnus Nordborg,2000-06-13 00:00:00,CS77285,south_sweden,,red_circle
6090,94.75,6.5,105,4.582575695,GMI,T1000,SWE,Staff 2,55.6525,13.2197,Mattias Jakobsson,2003-01-01 0:00:00,CS77288,south_sweden,,red_circle
6092,103,3.829708431,89.5,4.434711565,GMI,T1020,SWE,Staff 6,55.6514,13.2233,Mattias Jakobsson,2003-01-01 00:00:00,CS77289,south_sweden,,red_circle
6094,101.75,5.6789083458,92.66666667,34.78984526,GMI,T1040,SWE,Staff 4,55.6494,13.2147,Mattias Jakobsson,2003-01-01 0:00:00,CS77290,south_sweden,,red_circle
6097,114.5,11.2694276696,94,7.874007874,GMI,T1070,SWE,Staff 9,55.6481,13.2264,Mattias Jakobsson,2003-01-01 00:00:00,CS77291,south_sweden,,red_circle
6098,112.25,6.1305247192,105,6.480740698,GMI,T1080,SWE,Staff 11,55.6561,13.2178,Mattias Jakobsson,2003-01-01 0:00:00,CS77292,south_sweden,,red_circle
6099,117,5.4160256031,113.6666667,17.0098011,GMI,T1090,SWE,Staff 12,55.6575,13.2386,Mattias Jakobsson,2003-01-01 0:00:00,CS77293,south_sweden,,red_circle
6100,102,8.602325267,108.3333333,13.50308607,GMI,T1110,SWE,Staff 17,55.6,13.2,Mattias Jakobsson,2003-01-01 00:00:00,CS77294,south_sweden,,red_circle
6102,122.3333333333,12.8582010147,103.5,19.09188309,GMI,T1130,SWE,Staff 15,55.6,13.2,Mattias Jakobsson,2003-01-01 00:00:00,CS77295,south_sweden,,red_circle
6104,100,4.0824829046,109.5,10.66145706,GMI,T1160,SWE,Lund 16,55.7,13.2,Mattias Jakobsson,2003-01-01 00:00:00,CS77296,south_sweden,,red_circle
6105,97.75,4.9916597106,87.66666667,6.350852961,GMI,T450,SWE,Kävlinge 6,55.7967,13.1211,Mattias Jakobsson,2003-01-01 0:00:00,CS77297,south_sweden,,red_circle
6106,102,NA,94.75,6.5,GMI,T460,SWE,Kävlinge 8,55.7931,13.1186,Mattias Jakobsson,2003-01-01 00:00:00,CS77298,south_sweden,,red_circle
6107,119,5.2915026221,105.25,12.33896268,GMI,T470,SWE,Kävlinge 9,55.7942,13.1222,Mattias Jakobsson,2003-01-01 00:00:00,CS77299,south_sweden,,red_circle
6108,78.75,3.3040379336,52.75,4.272001873,GMI,T480,SWE,Kävlinge 3,55.7989,13.1206,Mattias Jakobsson,2003-01-01 00:00:00,CS77300,western_europe,,blu_circle
6109,100.75,2.6299556397,99,15.71623365,GMI,T510,SWE,Kävlinge 7,55.7936,13.1233,Mattias Jakobsson,2003-01-01 0:00:00,CS77301,south_sweden,,red_circle
6111,111.75,9.6738479073,93.66666667,4.041451884,GMI,T530,SWE,Kävlinge 1,55.7989,13.1219,Mattias Jakobsson,2003-01-01 00:00:00,CS77302,south_sweden,,red_circle
6112,94.5,3.3166247904,76.75,0.957427108,GMI,T540,SWE,Kävlinge 10,55.7967,13.1044,Mattias Jakobsson,2003-01-01 00:00:00,CS77303,south_sweden,,red_circle
6113,132.6666666667,13.0128141973,NA,NA,GMI,T550,SWE,Kävlinge 11,55.8078,13.1028,Mattias Jakobsson,2003-01-01 0:00:00,CS77304,south_sweden,,red_circle
6114,97,2.9439202888,92,7.874007874,GMI,T570,SWE,Kävlinge 13,55.8097,13.1342,Mattias Jakobsson,2003-01-01 00:00:00,CS77305,south_sweden,,red_circle
6115,97.5,14.9331845231,74.75,4.924428901,GMI,T580,SWE,Kävlinge 14,55.8,13.1367,Mattias Jakobsson,2003-01-01 0:00:00,CS77306,south_sweden,,red_circle
6118,98.25,2.3629078131,99.25,7.544313532,GMI,T610,SWE,Öresundsv,55.7,13.2,Mattias Jakobsson,2003-01-01 0:00:00,CS77307,south_sweden,,red_circle
6122,101.5,2.8867513459,90,4.966554809,GMI,T670,SWE,Eslöv 7,55.8364,13.3075,Mattias Jakobsson,2003-01-01 0:00:00,CS77308,south_sweden,,red_circle
6124,129.5,7.0474581706,106,1,GMI,T690,SWE,Eslöv 8,55.8378,13.3092,Mattias Jakobsson,2003-01-01 0:00:00,CS77309,south_sweden,,red_circle
6125,106.25,5.5602757725,100,10.48808848,GMI,T710,SWE,Eslöv 5,55.8403,13.3106,Mattias Jakobsson,2003-01-01 00:00:00,CS77310,south_sweden,,red_circle
6126,103.25,6.3966136875,89,1.732050808,GMI,T720,SWE,Eslöv 6,55.8411,13.3047,Mattias Jakobsson,2003-01-01 00:00:00,CS77311,south_sweden,,red_circle
6127,124,11.9443152448,132.6666667,11.37248141,,T730,SWE,Eslöv 3,55.8428,13.3058,Mattias Jakobsson,2003-01-01 0:00:00,,,,
6128,122.3333333333,9.0737717259,113,12.489996,GMI,T740,SWE,Eslöv 13,55.8397,13.2881,Mattias Jakobsson,2003-01-01 00:00:00,CS77313,south_sweden,,red_circle
6129,109.75,7.1355915429,131,19.79898987,,T750,SWE,Eslöv 10,55.8544,13.2875,Mattias Jakobsson,2003-01-01 00:00:00,,,,
6131,119,10.5830052443,137,NA,GMI,T780,SWE,Eslöv 14,55.8369,13.3181,Mattias Jakobsson,2003-01-01 00:00:00,CS77315,south_sweden,,red_circle
6132,106,3.1622776602,102.5,3.785938897,GMI,T790,SWE,Eslöv 17,55.8386,13.3186,Mattias Jakobsson,2003-01-01 00:00:00,CS77316,south_sweden,,red_circle
6133,111.75,12.473304828,91.75,2.986078811,GMI,T800,SWE,Eslöv 16,55.8364,13.2906,Mattias Jakobsson,2003-01-01 00:00:00,CS77317,south_sweden,,red_circle
6134,110,3.7416573868,100.3333333,4.932882862,GMI,T810,SWE,Eslöv 15,55.8383,13.2906,Mattias Jakobsson,2003-01-01 0:00:00,CS77318,south_sweden,,red_circle
6136,96.5,2.3804761428,84.5,3.415650255,GMI,T840,SWE,Höör 3,55.9336,13.5519,Mattias Jakobsson,2003-01-01 00:00:00,CS77319,south_sweden,,red_circle
6137,92.5,4.3588989435,87.75,5.251983752,GMI,T850,SWE,Höör 6,55.9419,13.5603,Mattias Jakobsson,2003-01-01 00:00:00,CS77320,south_sweden,,red_circle
6138,97,5.4772255751,90.75,5.909032634,GMI,T860,SWE,Höör 9,55.9403,13.5511,Mattias Jakobsson,2003-01-01 00:00:00,CS77321,south_sweden,,red_circle
6140,98.75,2.8722813233,103.25,15.37042615,GMI,T880,SWE,Höör 7,55.9392,13.5539,Mattias Jakobsson,2003-01-01 00:00:00,CS77322,south_sweden,,red_circle
6142,98.5,3.6968455021,107.5,11.26942767,GMI,T900,SWE,Höör 5,55.9428,13.5558,Mattias Jakobsson,2003-01-01 00:00:00,CS77323,south_sweden,,red_circle
6145,116,8.1649658093,111.5,16.26345597,GMI,T930,SWE,Höör 11,55.9497,13.5533,Mattias Jakobsson,2003-01-01 00:00:00,CS77324,south_sweden,,red_circle
6148,105,3.4641016151,105.6666667,4.932882862,GMI,T960,SWE,Höör 17,55.9319,13.5508,Mattias Jakobsson,2003-01-01 00:00:00,CS77325,south_sweden,,red_circle
6149,106,1.8257418584,99,9.933109617,GMI,T970,SWE,Höör 16,55.9281,13.5481,Mattias Jakobsson,2003-01-01 0:00:00,CS77326,south_sweden,,red_circle
6150,111.3333333333,3.7859388972,101.6666667,6.429100507,GMI,T980,SWE,Höör 15,55.9261,13.5319,Mattias Jakobsson,2003-01-01 00:00:00,CS77327,south_sweden,,red_circle
6151,99.5,8.6986589005,103.3333333,5.859465277,GMI,T990,SWE,Staff 3,55.6528,13.2244,Mattias Jakobsson,2003-01-01 00:00:00,CS77328,south_sweden,,red_circle
6153,149.25,30.2806318736,116,NA,GMI,TAA 03,SWE,TAA,62.6425,17.7422,Mattias Jakobsson,2003-01-01 0:00:00,CS77329,north_sweden,,orange_circle
6154,149.3333333333,7.3711147958,NA,NA,GMI,TAA 04,SWE,TAA,62.6422,17.7406,Mattias Jakobsson,2003-01-01 00:00:00,CS77330,north_sweden,,orange_circle
6163,157.5,13.4350288425,NA,NA,GMI,TAA 14,SWE,TAA,62.6425,17.7356,Mattias Jakobsson,2003-01-01 00:00:00,CS77331,north_sweden,,orange_circle
6166,144,16.3095064303,NA,NA,GMI,TAA 17,SWE,TAA,62.6425,17.7372,Mattias Jakobsson,2003-01-01 00:00:00,CS77332,north_sweden,,orange_circle
6169,116,5.5677643628,113.5,4.949747468,GMI,TÅD 01,SWE,TÅD,62.8714,18.3447,Mattias Jakobsson,2003-01-01 0:00:00,CS77333,north_sweden,,orange_circle
6171,103.25,1.8929694486,108,NA,,TÅD 03,SWE,TÅD,62.8717,18.3444,Mattias Jakobsson,2003-01-01 00:00:00,,,,
6172,110.5,21.7638844572,114,NA,GMI,TÅD 04,SWE,TÅD,62.8717,18.3436,Mattias Jakobsson,2003-01-01 00:00:00,CS77335,north_sweden,,orange_circle
6173,91.75,5.5,101,2.645751311,GMI,TÅD 05,SWE,TÅD,62.8717,18.3419,Mattias Jakobsson,2003-01-01 00:00:00,CS77336,north_sweden,,orange_circle
6174,100,6.5574385243,128,0,GMI,TÅD 06,SWE,TÅD,62.8719,18.3422,Mattias Jakobsson,2003-01-01 00:00:00,CS77337,north_sweden,,orange_circle
6177,99,8.1649658093,105.5,19.09188309,GMI,TÄL 03,SWE,TÄL,62.6322,17.69,Mattias Jakobsson,2003-01-01 00:00:00,CS77338,north_sweden,,orange_circle
6180,71,2.1602468995,41.25,2.217355783,GMI,TÄL 07,SWE,TÄL,62.6322,17.6906,Mattias Jakobsson,2003-01-01 00:00:00,CS77339,germany,,ltblu_circle
6184,93.6666666667,5.0332229568,103.6666667,5.686240703,GMI,TBÖ 01,SWE,TBÖ,62.8892,18.4522,Mattias Jakobsson,2003-01-01 00:00:00,CS77343,north_sweden,,orange_circle
6188,73.25,8.0570879768,53.5,2.081665999,GMI,TDr-1,SWE,TDr,55.7683,14.1386,Mattias Jakobsson,2003-01-01 00:00:00,CS77345,south_sweden,,red_circle
6189,74,4.9665548086,56.66666667,3.785938897,GMI,TDr-2,SWE,TDr,55.7686,14.1383,Mattias Jakobsson,2003-01-01 00:00:00,CS77351,south_sweden,,red_circle
6191,78.3333333333,7.6376261583,58.5,1.732050808,GMI,TDr-4,SWE,TDr,55.7689,14.1375,Mattias Jakobsson,2003-01-01 0:00:00,CS77352,south_sweden,,red_circle
6192,95,2.4494897428,63,4,GMI,TDr-5,SWE,TDr,55.7692,14.1369,Mattias Jakobsson,2003-01-01 0:00:00,CS77353,south_sweden,,red_circle
6193,83,8.2056890834,54.5,4.041451884,GMI,TDr-7,SWE,TDr,55.7694,14.1347,Mattias Jakobsson,2003-01-01 00:00:00,CS77354,south_sweden,,red_circle
6194,110.5,5.4467115461,91.5,6.244997998,GMI,TDr-8,SWE,TDr,55.7706,14.1342,Mattias Jakobsson,2003-01-01 00:00:00,CS77355,south_sweden,,red_circle
6195,83.75,4.1129875598,59,4.69041576,GMI,TDr-9,SWE,TDr,55.7708,14.1342,Mattias Jakobsson,2003-01-01 00:00:00,CS77356,south_sweden,,red_circle
6197,75.25,3.2015621187,59,5.887840578,,TDr-11,SWE,TDr,55.7714,14.1333,Mattias Jakobsson,2003-01-01 00:00:00,,,,
6198,88.25,8.4212033978,92.5,20.50609665,GMI,TDr-13,SWE,TDr,55.7708,14.1331,Mattias Jakobsson,2003-01-01 00:00:00,CS77347,south_sweden,,red_circle
6201,94.25,4.3493294502,103,5.597618541,GMI,TDr-16,SWE,TDr,55.7719,14.1211,Mattias Jakobsson,2003-01-01 00:00:00,CS77348,south_sweden,,red_circle
6202,109.75,7.8475049113,128,8.185352772,GMI,TDr-17,SWE,TDr,55.7717,14.1206,Mattias Jakobsson,2003-01-01 00:00:00,CS77349,south_sweden,,red_circle
6203,108,5.9441848334,119.6666667,23.18045153,GMI,TDr-18,SWE,TDr,55.7714,14.1208,Mattias Jakobsson,2003-01-01 0:00:00,CS77350,south_sweden,,red_circle
6209,94,2.8284271247,107,NA,GMI,TEDEN 02,SWE,TED,62.8836,18.1842,Mattias Jakobsson,2003-01-01 00:00:00,CS77358,north_sweden,,orange_circle
6210,100.75,6.6017674401,125,12.72792206,GMI,TEDEN 03,SWE,TED,62.8839,18.1836,Mattias Jakobsson,2003-01-01 00:00:00,CS77359,north_sweden,,orange_circle
6216,134.5,5.0662280512,NA,NA,GMI,TFÄ 06,SWE,TFÄ,63.0167,18.3283,Mattias Jakobsson,2003-01-01 00:00:00,CS77362,north_sweden,,orange_circle
6217,111.25,3.0956959368,127,NA,GMI,TFÄ 07,SWE,TFÄ,63.0169,18.3283,Mattias Jakobsson,2003-01-01 00:00:00,CS77363,north_sweden,,orange_circle
6218,124,11.401754251,137,NA,GMI,TFÄ 08,SWE,TFÄ,63.0172,18.3283,Mattias Jakobsson,2003-01-01 00:00:00,CS77364,north_sweden,,orange_circle
6220,103,7.1647284201,117.3333333,0.577350269,GMI,TGR 01,SWE,TGR,62.806,18.1896,Mattias Jakobsson,2003-01-01 00:00:00,CS77365,north_sweden,,orange_circle
6221,108,6.164414003,110,NA,GMI,TGR 02,SWE,TGR,62.806,18.1896,Mattias Jakobsson,2003-01-01 0:00:00,CS77366,north_sweden,,orange_circle
6231,109.25,7.3654599313,NA,NA,GMI,TNY 04,SWE,TNY,62.96,18.2844,Mattias Jakobsson,2003-01-01 00:00:00,CS77368,north_sweden,,orange_circle
6235,119.5,2.1213203436,NA,NA,GMI,TOM 01,SWE,TOM,62.9611,18.3589,Mattias Jakobsson,2003-01-01 0:00:00,CS77372,north_sweden,,orange_circle
6237,106,0,109,4,GMI,TOM 03,SWE,TOM,62.9619,18.35,Mattias Jakobsson,2003-01-01 0:00:00,CS77373,north_sweden,,orange_circle
6238,104.5,9.0369611412,124,NA,GMI,TOM 04,SWE,TOM,62.9619,18.35,Mattias Jakobsson,2003-01-01 00:00:00,CS77374,north_sweden,,orange_circle
6240,98.25,6.849574196,125.6666667,10.40833,GMI,TOM 06,SWE,TOM,62.9622,18.35,Mattias Jakobsson,2003-01-01 00:00:00,CS77375,north_sweden,,orange_circle
6241,96.25,4.7871355388,117.5,0.707106781,GMI,TOM 07,SWE,TOM,62.9614,18.3608,Mattias Jakobsson,2003-01-01 00:00:00,CS77376,north_sweden,,orange_circle
6242,83.6666666667,1.5275252317,86.5,24.44722206,GMI,Tomegap-2,SWE,Tomegap,55.7,13.2,Mattias Jakobsson,2003-01-01 00:00:00,CS77377,south_sweden,,red_circle
6243,66.75,4.5,43.75,3.095695937,GMI,Tottarp-2,SWE,Tottarp,56.27373,13.90045,Magnus Nordborg,1999-01-01 00:00:00,CS77381,central_europe,,ylw_circle
6244,90.75,6.9940450861,108.25,6.60176744,GMI,TRÄ 01,SWE,TRÄ,62.9169,18.4728,Mattias Jakobsson,2003-01-01 00:00:00,CS77384,north_sweden,,orange_circle
6252,122.75,13.6228973913,NA,NA,GMI,TV-4,SWE,TV,55.5796,14.3336,Mattias Jakobsson,2003-01-01 0:00:00,CS78771,germany,,ltblu_circle
6255,134,4,NA,NA,GMI,TV-7,SWE,TV,55.5796,14.334,Mattias Jakobsson,2003-01-01 0:00:00,CS78772,germany,,ltblu_circle
6258,119.25,7.6321687612,126.6666667,10.5039675,GMI,TV-10,SWE,TV,55.5796,14.3336,Mattias Jakobsson,2003-01-01 00:00:00,CS78767,admixed,,forbidden
6268,115,5.4160256031,128.6666667,7.234178138,GMI,TV-22,SWE,TV,55.5796,14.3336,Mattias Jakobsson,2003-01-01 00:00:00,CS78768,germany,,ltblu_circle
6276,131,11.7898261226,143,NA,GMI,TV-30,SWE,TV,55.5796,14.3336,Mattias Jakobsson,2003-01-01 00:00:00,CS78769,germany,,ltblu_circle
6284,117.5,1.9148542155,131.5,3.535533906,GMI,TV-38,SWE,TV,55.5796,14.3336,Mattias Jakobsson,2003-01-01 00:00:00,CS78770,south_sweden,,red_circle
6288,87.5,5.1961524227,98,3.559026084,,Udu-12,CZE,Udu,49.2771,16.6314,Jirina Relichov,2000-05-31 00:00:00,,,,
6296,75,7.0237691686,47,1.414213562,Monsanto,UduI 1-11,CZE,UduI 1,49.2771,16.6314,Jirina Relichov,2004-01-01 00:00:00,CS78774,central_europe,,ylw_circle
630,73.5,10.3440804328,58.75,9.53502316,Monsanto,LI-OF-065,USA,Organic Farm - OF,40.7777,-72.9069,Oliver Bossdorf,2006-04-01 00:00:00,CS77036,western_europe,,blu_circle
6390,71.75,4.3493294502,61.33333333,5.507570547,Monsanto,UduI 3-36,CZE,UduI 3,49.2771,16.6314,Jirina Relichov,2004-01-01 00:00:00,CS78775,central_europe,,ylw_circle
6396,82.75,8.6554414484,70.75,3.685557398,Monsanto,UduI 4-9,CZE,UduI 4,49.2771,16.6314,Jirina Relichov,2004-01-01 00:00:00,CS78776,central_europe,,ylw_circle
6413,104.25,5.123475383,95,5.416025603,GMI,Ull3-4,SWE,Ull3,56.06,13.97,Magnus Nordborg,2000-05-14 0:00:00,CS78819,south_sweden,,red_circle
6424,77,3.829708431,53,0.816496581,Monsanto,ZdrI 1-23,CZE,ZdrI 1,49.3853,16.2544,Jirina Relichov,2004-01-01 00:00:00,CS78875,central_europe,,ylw_circle
6434,62.75,6.6520673478,40,1.414213562,Monsanto,ZdrI 2-9,CZE,ZdrI 2,49.3853,16.2544,Jirina Relichov,2004-01-01 00:00:00,CS78877,admixed,,forbidden
6445,67,5.9441848334,50,3.741657387,Monsanto,ZdrI 2-21,CZE,ZdrI 2,49.3853,16.2544,Jirina Relichov,2004-01-01 00:00:00,CS78876,central_europe,,ylw_circle
6680,99.25,4.716990566,92.33333333,13.20353488,Salk,ANH-1,GER,Anholt,51.85,6.4333,Gerhard Röbbelen,1957-01-01 0:00:00,CS76437,western_europe,,blu_circle
6709,69,11.6904519445,49.5,6.806859286,,Bg-2,USA,BG,47.6479,-122.305,Juliette Winterer,1993-05-01 00:00:00,,,,
6744,63.25,6.8007352544,47.25,2.061552813,Monsanto,CSHL-5,USA,CSHL,40.8585,-73.4675,Catherine Weiss,1993-05-01 00:00:00,CS76779,germany,,ltblu_circle
6830,69.75,4.6457866216,41.25,1.258305739,MPI,Kz-13,KAZ,KZ,49.5,73.1,Ihsan Al-Shehbaz,1994-06-07 0:00:00,CS76994,admixed,,forbidden
6897,68,4.6904157598,66.25,19.83893478,Salk,Ag-0,FRA,Ag,45,1.3,Albert Kranz,,CS76430,western_europe,,blu_circle
6898,57.5,4.4347115652,34.25,1.892969449,Salk,An-1,BEL,An,51.2167,4.4,Albert Kranz,,CS76435,admixed,,forbidden
6900,116,NA,121.5,6.363961031,GMI,Bil-5,SWE,Bil,63.324,18.484,Magnus Nordborg,2000-06-25 00:00:00,CS76709,north_sweden,,orange_circle
6901,95.5,3.8729833462,117,5.656854249,GMI,Bil-7,SWE,Bil,63.324,18.484,Magnus Nordborg,2000-06-25 00:00:00,CS76710,north_sweden,,orange_circle
6903,81.5,3.4156502553,56.25,3.593976442,Salk,Bor-4,CZE,Bor,49.4013,16.2326,Jirina Relichov,2000-05-31 00:00:00,CS76454,central_europe,,ylw_circle
6904,72.25,6.4485140407,65.33333333,10.78579312,Salk,Br-0,CZE,Br,49.2,16.6166,Albert Kranz,,CS76455,western_europe,,blu_circle
6906,55.75,2.0615528128,,,,C24,POR,Co,40.2077,-8.42639,Brigitte Damm,,,,,
6907,72,2.1602468995,60.25,2.986078811,Salk,CIBC-17,UK,CIBC,51.4083,-0.6383,Mick Crawley,1993-05-21 00:00:00,CS76770,admixed,,forbidden
6908,66,3.3665016461,59,6,Salk,CIBC-5,UK,CIBC,51.4083,-0.6383,Mick Crawley,1993-05-21 00:00:00,CS78894,western_europe,,blu_circle
6909,70.5,14.3643076176,38,2.449489743,GMI,Col-0,USA,Col,38.3,-92.3,Albert Kranz,,CS76778,germany,,ltblu_circle
6911,62.75,6.9940450861,47.25,4.34932945,Salk,Cvi-0,CPV,Cvi,15.1111,-23.6167,Albert Kranz,,CS76789,relict,Y,grn_circle
6913,120.6666666667,8.0829037687,NA,NA,GMI,Eden-2,SWE,Eden,62.877,18.177,Magnus Nordborg,2000-06-25 00:00:00,CS76827,north_sweden,,orange_circle
6915,76.5,8.346656017,56.75,1.707825128,Salk,Ei-2,GER,Eifel,50.3,6.3,Albert Kranz,,CS76478,germany,,ltblu_circle
6916,75,6.4807406984,45.66666667,3.785938897,,Est-1,RUS,Est,58.3,25.3,Albert Kranz,,,,,
6917,144,6.0827625303,NA,NA,GMI,Fäb-2,SWE,Fäb,63.0165,18.3174,Magnus Nordborg,2000-06-25 00:00:00,CS76850,north_sweden,,orange_circle
6918,123,14.7196014439,NA,NA,GMI,Fäb-4,SWE,Fäb,63.0165,18.3174,Magnus Nordborg,2000-06-25 00:00:00,CS76851,north_sweden,,orange_circle
6919,76.75,7.1355915429,94,34.87119155,Salk,Ga-0,GER,Gabelstein,50.3,8,Albert Kranz,,CS76490,central_europe,,ylw_circle
6920,86.75,4.5,93.75,14.63728117,Salk,Got-22,GER,Goettingen,51.5338,9.9355,Gerhard Röbbelen,,CS76884,admixed,,forbidden
6921,83.25,5.6789083458,79.5,4.358898944,,Got-7,GER,Goettingen,51.5338,9.9355,Gerhard Röbbelen,,,,,
6922,71,5.9441848334,44.5,4.795831523,Salk,Gu-0,GER,Glueckingen,50.3,8,Albert Kranz,,CS76498,germany,,ltblu_circle
6923,57,4.8989794856,41.5,4.654746681,Salk,HR-10,UK,HR,51.4083,-0.6383,Mick Crawley,1993-05-21 00:00:00,CS76940,western_europe,,blu_circle
6924,61.5,6.0277137733,47,2.943920289,Salk,HR-5,UK,HR,51.4083,-0.6383,Mick Crawley,1993-05-21 00:00:00,CS76514,western_europe,,blu_circle
6926,66.25,4.9916597106,45.75,2.753785274,Salk,Kin-0,USA,Kin,44.46,-85.37,Albert Kranz,,CS76527,western_europe,,blu_circle
6927,73.5,4.7958315233,63,4.082482905,"Salk,MPI",KNO-10,USA,Knox,41.2816,-86.621,Joy Bergelson,1993-05-22 0:00:00,CS76973,germany,,ltblu_circle
6928,77.25,4.3493294502,63.66666667,3.785938897,,KNO-18,USA,Knox,41.2816,-86.621,Joy Bergelson,1993-05-22 0:00:00,,,,
6929,78.5,5.2599112794,61.75,4.645786622,Salk,Kondara,TJK,Kondara,38.48,68.49,Igor Vizir,,CS76532,asia,,purple_circle
6931,59.75,1.7078251277,48.5,6.608075867,Salk,Kz-9,KAZ,KZ,49.5,73.1,Ihsan Al-Shehbaz,1994-06-07 00:00:00,CS76537,asia,,purple_circle
6932,63.5,5.3229064742,40.33333333,0.577350269,"MPI,GMI",Ler-1,GER,Ler,47.984,10.8719,Eric Holub,,CS77021,admixed,,forbidden
6933,63.75,2.0615528128,54.5,3.535533906,Salk,LL-0,ESP,Ll,41.59,2.49,Albert Kranz,,CS77047,spain,,pink_circle
6936,80.5,4.9328828623,56.5,3.109126351,,Lz-0,FRA,Lz,46,3.3,Albert Kranz,,,,,
6937,75.75,4.2720018727,57.25,0.957427108,,Mrk-0,GER,Markt/Baden,49,9.3,Albert Kranz,,,,,
6938,72,4.7609522857,70.75,6.291528696,Salk,Ms-0,RUS,Ms,55.7522,37.6322,Albert Kranz,,CS76555,asia,,purple_circle
6939,61.25,3.6855573979,44,0.816496581,,Mt-0,LIB,Mt,32.34,22.46,Albert Kranz,,,,,
6940,64.25,5.1881274721,39.25,2.872281323,Salk,Mz-0,GER,Merzhausen/Ts.,50.3,8.3,Albert Kranz,,CS76557,germany,,ltblu_circle
6943,60.75,2.2173557826,42.5,1.290994449,Salk,NFA-10,UK,NFA,51.4083,-0.6383,Mick Crawley,1993-05-21 00:00:00,CS77126,western_europe,,blu_circle
6944,63.75,9.9456858319,44.5,3.31662479,Salk,NFA-8,UK,NFA,51.4083,-0.6383,Mick Crawley,1993-05-21 00:00:00,CS78913,western_europe,,blu_circle
6945,76.5,7.1879528843,56,3.464101615,Salk,Nok-3,NED,Nok,52.24,4.45,Albert Kranz,,CS76562,germany,,ltblu_circle
6951,79.5,3.109126351,59,4.242640687,Salk,Pu2-23,CZE,Pu2,49.42,16.36,Ivo Cetl,,CS76579,central_europe,,ylw_circle
6956,84.5,2.6457513111,72.5,5.259911279,Salk,Pu2-7,CZE,Pu2,49.42,16.36,Ivo Cetl,,CS76580,central_europe,,ylw_circle
6957,81.25,3.7749172176,84.66666667,13.42882472,Salk,Pu2-8,CZE,Pu2,49.42,16.36,Ivo Cetl,,CS77192,central_europe,,ylw_circle
6958,68.75,3.3040379336,41.66666667,0.577350269,Salk,Ra-0,FRA,Ra,46,3.3,Albert Kranz,,CS76582,western_europe,,blu_circle
6959,71.75,4.9916597106,53.25,3.201562119,Salk,Rennes-1,FRA,REN,48.5,-1.41,Gerhard Röbbelen,,CS77210,western_europe,,blu_circle
6960,55,6.164414003,39.75,5.678908346,Salk,Rennes-11,FRA,REN,48.5,-1.41,Gerhard Röbbelen,,CS77211,western_europe,,blu_circle
6961,59,6.9282032303,50.33333333,5.131601439,Salk,Se-0,ESP,Se,38.3333,-3.53333,Albert Kranz,,CS76597,spain,,pink_circle
6963,78.75,8.5,64.25,6.751543034,Salk,Sorbo,TJK,Sorbo,38.35,68.48,Igor Vizir,,CS78917,asia,,purple_circle
6964,94.75,13.2759180474,103.3333333,11.8462371,,Spr1-2,SWE,Spr1,56.31635,16.03529,Magnus Nordborg,2000-05-15 0:00:00,,,,
6965,94.6666666667,18.929694486,113.3333333,14.04753834,,Spr1-6,SWE,Spr1,56.31635,16.03529,Magnus Nordborg,2000-05-15 0:00:00,,,,
6966,62.25,3.3040379336,55.125,9.29573635,Salk,Sq-1,UK,SQ,51.4083,-0.6383,Mick Crawley,1993-05-21 00:00:00,CS77266,western_europe,,blu_circle
6967,62.75,4.5,42,4.082482905,Salk,Sq-8,UK,SQ,51.4083,-0.6383,Mick Crawley,1993-05-21 00:00:00,CS76604,western_europe,,blu_circle
6968,92.5,4.0414518843,91.33333333,4.509249753,"Salk,GMI",Tamm-2,FIN,Tamm,60,23.5,Outi Savolainen,1989-05-01 0:00:00,CS76610,north_sweden,,orange_circle
6969,91.25,6.3966136875,96,5.228129047,Salk,Tamm-27,FIN,Tamm,60,23.5,Outi Savolainen,,CS77341,north_sweden,,orange_circle
6970,62.5,1.7320508076,50.25,2.362907813,Salk,Ts-1,ESP,Ts,41.7194,2.93056,Albert Kranz,,CS76615,spain,,pink_circle
6971,66.25,5.5,63.66666667,4.041451884,Salk,Ts-5,ESP,Ts,41.7194,2.93056,Albert Kranz,,CS77388,spain,,pink_circle
6972,79.5,5.4467115461,,,,Tsu-1,JPN,Tsu,34.43,136.31,Eric Holub,,,,,
6973,77.25,8.6168439698,46.25,1.707825128,GMI,Ull2-3,SWE,Ull2,56.0648,13.9707,Magnus Nordborg,2000-05-14 00:00:00,CS78817,germany,,ltblu_circle
6974,108.75,6.8980673622,125.25,10.87428159,GMI,Ull2-5,SWE,Ull2,56.0648,13.9707,Magnus Nordborg,2000-05-14 00:00:00,CS78818,south_sweden,,red_circle
6975,67.25,3.3040379336,47.25,2.62995564,Salk,Uod-1,AUT,Uod,48.3,14.45,Marcus Koch,2000-06-23 0:00:00,CS76621,central_europe,,ylw_circle
6976,71.25,7.3654599313,69.5,5.322906474,Salk,Uod-7,AUT,Uod,48.3,14.45,Marcus Koch,2000-06-23 0:00:00,CS78823,central_europe,,ylw_circle
6979,54.75,6.1305247192,36,0.816496581,Salk,Wei-0,SUI,Wei,47.25,8.26,Alan Slusarenko,,CS76628,central_europe,,ylw_circle
6981,62.25,12.8419884234,43,2.708012802,"MPI,Salk",Ws-2,RUS,Ws,52.3,30,Kenneth Feldmann,,CS78920,admixed,,forbidden
6982,78.5,10.5987420637,44,4.242640687,Salk,Wt-5,GER,Wietze,52.3,9.3,Albert Kranz,,CS76632,germany,,ltblu_circle
6984,69.25,2.9860788112,47.75,3.201562119,Salk,Zdr-1,CZE,Zdr,49.3853,16.2544,Jirina Relichov,2000-05-31 0:00:00,CS76635,central_europe,,ylw_circle
6985,65.5,4.6547466813,53,2.943920289,,Zdr-6,CZE,Zdr,49.3853,16.2544,Jirina Relichov,2000-05-31 0:00:00,,,,
6986,61.5,4.4347115652,43.75,4.193248542,Salk,Abd-0,UK,Abd,57.1539,-2.2207,R. Mitchelson,,CS76429,western_europe,,blu_circle
6987,69,2.7080128015,47.75,1.707825128,Salk,Ak-1,GER,Achkarren/Freiburg ,48.0683,7.62551,Albert Kranz,,CS76431,admixed,,forbidden
6989,78.25,5.0579969685,61,5.773502692,Salk,Alst-1,UK,Alst,54.8,-2.4333,Maarten Koornneef,,CS76432,western_europe,,blu_circle
6990,79,5.5976185412,60.25,5.057996968,Salk,Amel-1,NED,Amel,53.448,5.73,Maarten Koornneef,,CS76434,admixed,,forbidden
6992,68,0.8164965809,54.25,4.991659711,Salk,Ang-0,BEL,Ang,50.3,5.3,Albert Kranz,,CS76436,admixed,,forbidden
6994,79,5.8878405776,80,NA,,Ann-1,FRA,Ann,45.9,6.13028,Maarten Koornneef,,,,,
6997,81,5.5976185412,56,5.416025603,Salk,Appt-1,NED,Appt,51.8333,5.5833,Maarten Koornneef,,CS76440,germany,,ltblu_circle
7000,78,2.7080128015,54,2.828427125,Salk,Aa-0,GER,Aua/Rhon ,50.9167,9.57073,Albert Kranz,,CS76428,germany,,ltblu_circle
7002,80.25,5.8523499554,59,1.825741858,Salk,Baa-1,NED,Baa,51.3333,6.1,Maarten Koornneef,,CS76442,germany,,ltblu_circle
7003,71.75,9.1423921013,51,4.69041576,Salk,Bs-1,SUI,Bs,47.5,7.5,Albert Kranz,,CS78888,admixed,,forbidden
7008,95.5,4.7958315233,95,28.78657094,Salk,Benk-1,NED,Benk,52,5.675,Maarten Koornneef,,CS76447,germany,,ltblu_circle
7010,77,6.9761498455,54.25,3.403429643,,Be-0,GER,Bensheim/Bergstr.,49.6803,8.6161,Albert Kranz,,,,,
7013,63,4.8304589154,38.75,1.707825128,Salk,Bd-0,GER,Berlin/Dahlem ,52.4584,13.287,Albert Kranz,,CS76445,south_sweden,,red_circle
7014,81.5,4.1231056256,74,2.645751311,Salk,Ba-1,UK,Black Mount (Ba),56.5459,-4.79821,Albert Kranz,,CS76441,germany,,ltblu_circle
7025,71.5,8.346656017,52.66666667,3.055050463,Salk,Bl-1,ITA,Bl,44.5041,11.3396,Albert Kranz,,CS76450,central_europe,,ylw_circle
7026,69,8.7559503577,45.5,3.872983346,Salk,Boot-1,UK,Boot,54.4,-3.2667,Maarten Koornneef,2000-05-14 00:00:00,CS76452,western_europe,,blu_circle
7028,57.5,1,40.25,6.652067348,Salk,Bch-1,GER,Buchen/Lauenburg,49.5166,9.3166,Albert Kranz,,CS76444,admixed,,forbidden
7031,78.25,9.8107084352,47.25,1.707825128,Salk,Bsch-0,GER,Buchschlag/Frankfurt am Main,50.0167,8.6667,Albert Kranz,,CS76457,germany,,ltblu_circle
7033,78.75,2.2173557826,76,4.242640687,"Salk,MPI",Buckhorn Pass,USA,Buckhorn Pass,41.3599,-122.755,Angus Murphy,,CS76733,germany,,ltblu_circle
7036,67.75,5.123475383,50.5,1,"MPI,Salk",Bu-0,GER,Burghaun/Rhon,50.5,9.5,Albert Kranz,,CS78889,germany,,ltblu_circle
7058,87.25,4.4253060158,66,3.464101615,Mott,Bur-0,IRL,Bur,54.1,-6.2,Albert Kranz,,CS76734,admixed,,forbidden
7061,87.25,3.9475730941,64,0,Salk,Cal-0,UK,Cal,53.2699,-1.64293,Albert Kranz,,CS76460,admixed,,forbidden
7062,62.25,1.8929694486,38.25,0.957427108,Salk,Ca-0,GER,Camberg/Taunus,50.2981,8.26607,Albert Kranz,,CS76459,germany,,ltblu_circle
7063,72.25,7.4105780251,51,3.464101615,Mott,Can-0,ESP,Can,29.2144,-13.4811,Albert Kranz,,CS76740,relict,Y,grn_circle
7064,68.3333333333,2.3094010768,66.66666667,8.386497084,Salk,Cnt-1,UK,Canterbury (Sullivan garden),51.3,1.1,Eric Holub,,CS76467,western_europe,,blu_circle
7067,58.75,2.9860788112,42.25,1.707825128,Mott,Ct-1,ITA,Ct,37.3,15,Albert Kranz,,CS76786,central_europe,,ylw_circle
7068,63.75,3.6855573979,56,8.366600265,Salk,Cerv-1,ITA,Cerv,42,12.1,Maarten Koornneef,,CS76462,italy_balkan_caucasus,,wht_circle
7071,64.25,2.2173557826,45,4.546060566,Salk,Chat-1,FRA,Chat,48.0717,1.33867,Maarten Koornneef,,CS76463,western_europe,,blu_circle
7072,70.25,2.8722813233,62,4.966554809,Salk,Chi-0,RUS,Chi,53.7502,34.7361,Albert Kranz,,CS76464,admixed,,forbidden
7075,96,10.7082522695,NA,NA,,Cit-0,FRA,Cit,43.3779,2.54038,Albert Kranz,,,,,
7077,54.5,5.9160797831,44.33333333,2.081665999,Salk,Co-1,POR,Co,40.12,-8.25,Albert Kranz,,CS76468,italy_balkan_caucasus,,wht_circle
7081,58.5,4.1231056256,42.5,2.516611478,Salk,Co,POR,Co,40.2077,-8.42639,George Redei,,CS78895,spain,,pink_circle
7092,68,3.3665016461,54.25,3.774917218,Salk,Com-1,FRA,Com,49.416,2.823,Maarten Koornneef,,CS76469,western_europe,,blu_circle
7094,67.25,4.3493294502,43.25,2.217355783,Monsanto,Da-0,GER,Darmstadt,49.8724,8.65081,Albert Kranz,,CS76791,germany,,ltblu_circle
7096,65.5,8.1853527719,40.25,0.957427108,Salk,Di-G,FRA,Di,47.3239,5.04278,Maarten Koornneef,,CS76472,admixed,,forbidden
7098,58.5,2.0816659995,45.5,5.802298395,,Di-1,FRA,Di,47,5,Albert Kranz,,,,,
7102,87.25,6.6520673478,71,5.656854249,Salk,Do-0,GER,Donsbach/Westerw.,50.7224,8.2372,Albert Kranz,,CS76474,germany,,ltblu_circle
7103,62.25,3.0956959368,36.75,0.5,Salk,Dra-0,CZE,Dra,49.4167,16.2667,Albert Kranz,,CS76476,central_europe,,ylw_circle
7106,76.5,5.0662280512,44.5,1.290994449,"MPI,Salk",Dr-0,GER,Dresden,51.051,13.7336,Albert Kranz,,CS78897,central_europe,,ylw_circle
7107,67.25,1.5,50.75,3.862210075,Salk,Durh-1,UK,Durh,54.7761,-1.5733,Maarten Koornneef,,CS76477,western_europe,,blu_circle
7109,60.75,4.1932485418,45.75,4.193248542,Salk,Ema-1,UK,Ema,51.3,0.5,Eric Holub,,CS76480,western_europe,,blu_circle
7111,86,11.7898261226,,,Mott,Edi-0,UK,Edi,55.9494,-3.16028,Albert Kranz,,CS76831,admixed,,forbidden
7117,58,6.0553007082,36.5,2.081665999,Salk,El-0,GER,Eifel,51.5105,9.68253,Albert Kranz,,CS76479,germany,,ltblu_circle
7119,65.5,6.5574385243,41,1.414213562,Salk,En-2,GER,Enkheim/Frankfurt,50,8.5,Albert Kranz,,CS76481,germany,,ltblu_circle
7120,62.5,4.5092497528,42.75,2.217355783,Salk,En-D,GER,Enkheim/Frankfurt,50,8.5,Albert Kranz,,CS76482,central_europe,,ylw_circle
7123,70.75,8.0570879768,41,1.632993162,,Ep-0,GER,Eppenheim/Taunus,50.1721,8.38912,Albert Kranz,,,,,
7125,69.25,9.464847243,42.75,1.258305739,"MPI,Salk",Er-0,GER,Erlangen,49.5955,11.0087,Albert Kranz,,CS78898,germany,,ltblu_circle
7126,95.5,5,97.25,5.795112884,Salk,Es-0,FIN,Es,60.1997,24.5682,Albert Kranz,,CS76484,admixed,,forbidden
7127,59.75,3.5,45.5,2.886751346,Salk,Est,EST,EstGER,58.6656,24.9871,Brigitte Damm,,CS76485,admixed,,forbidden
7130,91.6666666667,3.7859388972,78.25,5.5,Salk,Et-0,FRA,Et,44.6447,2.56481,Albert Kranz,,CS76486,western_europe,,blu_circle
7133,76,16.2685791225,46.25,1.5,Salk,Fr-2,GER,Frankfurt,50.1102,8.6822,Albert Kranz,,CS76489,germany,,ltblu_circle
7138,85.5,3.3166247904,68.5,12.02081528,Salk,Fi-0,GER,Frickhofen,50.5,8.0167,Albert Kranz,,CS76488,admixed,,forbidden
7143,83,4.582575695,44.5,0.577350269,Salk,Gel-1,NED,Gel,51.0167,5.86667,Maarten Koornneef,,CS76492,germany,,ltblu_circle
7147,74.5,2.5166114784,52.66666667,4.163331999,Salk,Gie-0,GER,Gieben,50.584,8.67825,Albert Kranz,,CS76493,admixed,,forbidden
7148,73.75,8.0156097709,66,6.683312552,,Gifu-2,JPN,Gifu,35.45,137.42,Hirokazu Tsukaya,,,,,
7158,63.3333333333,2.8867513459,47.75,6.898067362,Monsanto,Gr-5,AUT,Graz,47,15.5,Albert Kranz,,CS76885,central_europe,,ylw_circle
7160,72.25,2.7537852736,66.5,4.509249753,Salk,Gre-0,USA,Gre,43.178,-85.2532,Albert Kranz,,CS76497,germany,,ltblu_circle
7161,61.25,2.0615528128,39.33333333,1.527525232,Salk,Gd-1,GER,Gudow,53.5,10.5,Albert Kranz,,CS76491,germany,,ltblu_circle
7162,65,1.6329931619,42.75,1.707825128,Salk,Hs-0,GER,Hannover/Stroehen,52.24,9.44,Albert Kranz,,CS76515,germany,,ltblu_circle
7163,66.5,4.7958315233,44,2.943920289,Salk,Ha-0,GER,Hannover,52.3721,9.73569,Albert Kranz,,CS76500,admixed,,forbidden
7164,69.75,1.8929694486,59.25,2.5,Salk,Hau-0,DEN,Hau,55.675,12.5686,Albert Kranz,,CS76915,south_sweden,,red_circle
7165,71.5,3.109126351,43.5,2.380476143,Salk,Hn-0,GER,Hennetalsperre,51.3472,8.28844,Albert Kranz,,CS76513,germany,,ltblu_circle
7166,67.25,3.7749172176,50.75,3.304037934,,Hey-1,NED,Hey,51.25,5.9,Maarten Koornneef,,,,,
7167,57,7.7028133389,34.25,1.707825128,,,,,,,,,,,,
7169,82.5,5.1961524227,78.25,12.97112177,Salk,Hh-0,GER,Hohenlieth,54.4175,9.88682,Albert Kranz,,CS76512,admixed,,forbidden
7177,65.75,2.8722813233,45.25,2.753785274,Salk,Jm-0,CZE,Jm,49,15,Albert Kranz,,CS76520,central_europe,,ylw_circle
7181,96.75,28.5233822211,97,35.59494346,Salk,Je-0,GER,Jena,50.927,11.587,Albert Kranz,,CS76518,admixed,,forbidden
7182,64,3.2659863237,42.33333333,1.527525232,,,,,,,,,,,,
7186,75,6.9761498455,49.75,2.872281323,Mott,Kn-0,LTU,Kn,54.8969,23.8924,Albert Kranz,,CS76969,central_europe,,ylw_circle
7192,68.75,9.6393291606,42,1.825741858,Salk,Kil-0,UK,Killean (Kil),55.6395,-5.66364,Albert Kranz,,CS76526,germany,,ltblu_circle
7199,66.5,14.3874945699,37,1.825741858,Salk,Kl-5,GER,Koeln,50.95,6.9666,Albert Kranz,,CS76528,germany,,ltblu_circle
7202,63,7.118052168,40.75,6.238322424,Salk,Kb-0,GER,Kronberg/Taunus,50.1797,8.50861,Albert Kranz,,CS76524,germany,,ltblu_circle
7203,67.25,4.7871355388,44.5,2.516611478,Salk,Krot-0,GER,Krottensee,49.631,11.5722,Thomas Mitchell-Olds,,CS76534,central_europe,,ylw_circle
7206,65,8.9069261439,40.25,2.872281323,,Kro-0,GER,Krotzenburg,50.0742,8.96617,Albert Kranz,,,,,
7207,70.25,2.3629078131,49.75,1.258305739,Salk,Kyoto,JPN,Kyoto,35.0085,135.752,Hirokazu Tsukaya,,CS76535,central_europe,,ylw_circle
7208,73,6.2182527021,46,3.829708431,Salk,Lan-0,UK,Lan,55.6739,-3.78181,Albert Kranz,,CS76539,germany,,ltblu_circle
7209,63.5,5.9721576224,45.25,2.061552813,Salk,La-0,POL,La,52.7333,15.2333,Albert Kranz,,CS76538,admixed,,forbidden
7213,65.5,4.0414518843,40,1.632993162,Mott,Ler-0,GER,Ler,47.984,10.8719,Maarten Koornneef,,CS77020,admixed,,forbidden
7217,56.5,4.1231056256,38,1.414213562,Salk,Lm-2,FRA,Lm,48,0.5,Albert Kranz,,CS76545,western_europe,,blu_circle
7218,75,5.3541261347,51.25,1.707825128,Salk,Le-0,NED,Le,52.1611,4.49015,Albert Kranz,,CS76540,admixed,,forbidden
7223,75.75,4.9916597106,54.75,5.057996968,Salk,Li-2:1,GER,Limburg,50.3833,8.0666,Albert Kranz,,CS76541,central_europe,,ylw_circle
7231,65.75,5.377421935,45.33333333,3.214550254,Monsanto,Li-7,GER,Limburg,50.3833,8.0666,Albert Kranz,,CS77035,germany,,ltblu_circle
7236,73.5,4.5092497528,47.5,2.081665999,Salk,Litva,LTU,Litva,,,Igor Vizir,,CS76543,central_europe,,ylw_circle
7244,68,2.9439202888,46,1.825741858,Salk,Mnz-0,GER,Mainz,50.001,8.26664,Albert Kranz,,CS76552,germany,,ltblu_circle
7248,71.5,2.6457513111,66.66666667,5.507570547,Salk,Mv-0,USA,Mv,41.3923,-70.6652,Albert Kranz,,CS76556,germany,,ltblu_circle
7250,58,4.2426406871,37.75,1.892969449,Salk,Me-0,GER,Mechtshausen/Hessen,51.9183,10.1138,Albert Kranz,,CS76549,germany,,ltblu_circle
7252,112.6666666667,2.5166114784,96.66666667,3.511884584,,Mc-0,UK,Mc,54.6167,-2.3,Albert Kranz,,,,,
7255,62,4.3588989435,47.33333333,10.40833,Salk,Mh-0,GER,Muhlen,50.95,7.5,Albert Kranz,,CS76550,germany,,ltblu_circle
7258,71,4.5460605657,43.5,2.380476143,Salk,Nw-0,GER,Neuweilnau,50.5,8.5,Albert Kranz,,CS76564,germany,,ltblu_circle
7263,61.75,2.9860788112,41.66666667,0.577350269,,Nz-1,NZL,Nz1,-37.7871,175.283,James Campanella,,,,,
7268,65.75,5.377421935,43.66666667,1.527525232,Salk,Np-0,GER,Nieps/Salzwedel,52.6969,10.981,Albert Kranz,,CS76563,admixed,,forbidden
7273,77,13.9761701955,43.66666667,2.081665999,Mott,No-0,GER,Halle,51.0581,13.2995,Albert Kranz,,CS77128,central_europe,,ylw_circle
7276,73.75,4.2720018727,49.25,2.753785274,Salk,Ob-0,GER,Oberursel/Hasen,50.2,8.5833,Albert Kranz,,CS76566,germany,,ltblu_circle
7280,80.75,2.2173557826,46.5,1.914854216,Salk,Old-1,GER,Oldenburg,53.1667,8.2,Albert Kranz,,CS76567,germany,,ltblu_circle
7282,62.5,5.7445626465,37.5,1.290994449,Salk,Or-0,GER,Oranienstein,50.3827,8.01161,Albert Kranz,,CS76568,germany,,ltblu_circle
7287,71,3.7416573868,48.25,2.061552813,Salk,Ove-0,GER,Ovelgoenne,53.3422,8.42255,Albert Kranz,,CS76569,germany,,ltblu_circle
7288,82.5,3.8729833462,70.25,8.995369179,Mott,Oy-0,NOR,Oy,60.385543,6.193019,Albert Kranz,2002-05-24 2:00:00,CS77156,admixed,,forbidden
7296,84.25,3.7749172176,62.5,7.724420151,Monsanto,Petergof,RUS,Petergof,59,29,Igor Vizir,,CS77170,central_europe,,ylw_circle
7298,81.75,5.4390562907,53.25,2.217355783,Salk,Pi-0,AUT,Pi,47.04,10.51,Albert Kranz,,CS76572,central_europe,,ylw_circle
7305,79.25,6.5,51.5,1.732050808,Salk,Pt-0,GER,Poetrau/Lauenburg,53.476,10.6065,Albert Kranz,,CS78915,admixed,,forbidden
7306,76.5,2.8867513459,49.75,1.707825128,Salk,Pog-0,CAN,Pog,49.2655,-123.206,Albert Kranz,,CS76576,western_europe,,blu_circle
7307,78.5,5.8022983952,72.33333333,7.571877794,Monsanto,Pn-0,FRA,Pn,48.0653,-2.96591,Albert Kranz,,CS77182,western_europe,,blu_circle
7308,84.75,5.5,54.5,3.696845502,,Po-0,GER,Poppelsdorf,50.7167,7.1,Albert Kranz,,,,,
7314,66,5.9441848334,42.25,2.217355783,Salk,Ragl-1,UK,Ragl,54.3512,-3.41697,Maarten Koornneef,,CS76583,admixed,,forbidden
7316,81.25,2.0615528128,89.25,30.77201109,Salk,Rhen-1,NED,Rhen,51.9667,5.56667,Maarten Koornneef,,CS78916,admixed,,forbidden
7319,58.5,4.2031734043,52.75,4.272001873,Salk,Rome-1,ITA,Rome,42,12.1,Maarten Koornneef,,CS76590,admixed,,forbidden
7320,80.75,3.8622100754,74.5,3.696845502,Salk,Rou-0,FRA,Rou,49.4424,1.09849,Albert Kranz,,CS76591,western_europe,,blu_circle
7322,76.5,9.9498743711,51.75,4.573474245,Mott,Rsch-4,RUS,Rsch,56.3,34,Albert Kranz,,CS77222,germany,,ltblu_circle
7323,75.75,6.0759087112,64.25,3.403429643,Salk,Rubezhnoe-1,UKR,Rubezhnoe,49,38.28,Igor Vizir,,CS76594,asia,,purple_circle
7327,64.5,6.2449979984,53.5,3.109126351,Salk,Sf-1,ESP,Sf,41.7833,3.03333,F. Laibach,,CS77246,spain,,pink_circle
7328,56.25,5.5602757725,51.33333333,1.527525232,Mott,Sf-2,ESP,Sf,41.7833,3.03333,Albert Kranz,,CS77247,spain,,pink_circle
7329,66.75,4.1129875598,42,3.366501646,,Santa Clara,USA,Santa Clara,37.21,-121.16,Angus Murphy,,,,,
7330,85.25,4.5734742447,49,1.825741858,,Sapporo-0,JPN,Sapporo,43.0553,141.346,Yoshie Hanzawa,,,,,
7332,64,5.2915026221,43.5,4.795831523,Salk,Seattle-0,USA,Seattle,47,-122.2,Rick Amasino,,CS76598,western_europe,,blu_circle
7333,68.75,4.5734742447,39.75,1.892969449,Salk,Sei-0,ITA,Sei,46.5438,11.5614,Albert Kranz,,CS76599,central_europe,,ylw_circle
7337,74.5,6.1913918737,47.5,3.696845502,Salk,Si-0,GER,Siegen,50.8738,8.02341,Albert Kranz,,CS76601,germany,,ltblu_circle
7342,83,3.1622776602,65,11.46007563,Salk,Su-0,UK,Su,53.6473,-3.00733,Albert Kranz,,CS76606,admixed,,forbidden
7343,72,7,51.25,1.707825128,Salk,Sp-0,GER,Berlin/Spandau,52.5339,13.181,Albert Kranz,,CS76603,south_sweden,,red_circle
7344,73.5,1.7320508076,47.66666667,2.081665999,Salk,Sg-1,GER,St.Georgen,47.6667,9.5,Albert Kranz,,CS76600,admixed,,forbidden
7346,78.25,2.0615528128,58.66666667,1.527525232,Monsanto,Sten-0,GER,Stendal,52.6058,11.8558,Albert Kranz,,CS77277,south_sweden,,red_circle
7347,64.75,4.9244289009,47,1.154700538,Salk,Stw-0,RUS,Stw,52,36,Albert Kranz,,CS76605,central_europe,,ylw_circle
7349,81.25,2.0615528128,52.75,4.787135539,Salk,Ta-0,CZE,Ta,49.5,14.5,Albert Kranz,,CS76608,central_europe,,ylw_circle
7350,80,1.6329931619,52,3.605551275,Salk,Tac-0,USA,Tac,47.2413,-122.459,Thomas Mitchell-Olds,,CS76609,central_europe,,ylw_circle
7351,97.3333333333,4.9328828623,72.66666667,9.073771726,,Ty-0,UK,Ty,56.4278,-5.23439,Albert Kranz,,,,,
7353,86,4.9665548086,70.5,5.916079783,Salk,Tha-1,NED,Tha,52.08,4.3,Maarten Koornneef,,CS76611,admixed,,forbidden
7354,100.25,15.1079449297,108.3333333,26.63331247,Salk,Ting-1,SWE,Ting,56.5,14.9,Maarten Koornneef,,CS76612,south_sweden,,red_circle
7355,80.75,5.3150729064,80.75,3.862210075,,Tiv-1,ITA,Tiv,41.96,12.8,Maarten Koornneef,,,,,
7356,88,3.559026084,64.33333333,3.214550254,"Salk,MPI",Tol-0,USA,Tol,41.6639,-83.5553,Scott Leisner,,CS76614,germany,,ltblu_circle
7372,83,4.9665548086,54.5,9.036961141,Salk,Tscha-1,AUT,Tscha,47.0748,9.9042,Maarten Koornneef,,CS76616,central_europe,,ylw_circle
7373,81.25,6.9462219947,54.75,0.957427108,Mott,Tsu-0,JPN,Tsu,34.43,136.31,Albert Kranz,,CS77389,admixed,,forbidden
7375,75.75,4.5734742447,54.25,2.872281323,,,,,,,,,,,,
7377,75.75,3.2015621187,59.75,0.957427108,Salk,Tul-0,USA,Tul,43.2708,-85.2563,Albert Kranz,,CS76618,germany,,ltblu_circle
7378,71.25,4.0311288741,52,3.741657387,Salk,Uk-1,GER,Umkirch,48.0333,7.7667,Albert Kranz,,CS76620,admixed,,forbidden
7382,55.5,4.5092497528,40,2.160246899,Salk,Utrecht,NED,Utrecht,52.0918,5.1145,Viola Willemsen,,CS76622,admixed,,forbidden
7383,60.5,4.7958315233,38,1.414213562,Salk,Van-0,CAN,Van,49.2655,-123.206,Albert Kranz,,CS76623,western_europe,,blu_circle
7384,76.25,2.2173557826,65.75,7.274384281,Salk,Ven-1,NED,Ven,52.0333,5.55,Maarten Koornneef,,CS76624,admixed,,forbidden
7387,60.75,4.9916597106,41.25,11.08677891,Salk,Vind-1,UK,Vind,54.9902,-2.3671,Maarten Koornneef,,CS76625,western_europe,,blu_circle
7394,56.75,5.9090326337,41.75,5.737304826,Salk,Wa-1,POL,Wa,52.3,21,Albert Kranz,,CS76626,admixed,,forbidden
7396,61.5,4.2031734043,51.5,1.290994449,Mott,Ws-0.2,RUS,Ws,52.3,30,Albert Kranz,,CS78857,central_europe,,ylw_circle
7404,68.5,3.8729833462,41.33333333,2.886751346,Salk,Wc-1,GER,Westercelle ,52.6,10.0667,Albert Kranz,,CS76627,admixed,,forbidden
7411,66,NA,54,2.828427125,Salk,Wl-0,GER,Wildbad,47.9299,10.8134,Albert Kranz,,CS76630,central_europe,,ylw_circle
7413,69.25,5.4390562907,48,4.546060566,Mott,Wil-2,LTU,Wil,54.6833,25.3167,Albert Kranz,,CS78856,central_europe,,ylw_circle
7415,72.25,8.5,45.25,2.061552813,Mott,Wu-0,GER,Wurzburg,49.7878,9.9361,Albert Kranz,,CS78858,germany,,ltblu_circle
7416,81.5,10.0829889748,78.66666667,3.511884584,Salk,Yo-0,USA,Yo,37.45,-119.35,Albert Kranz,,CS76633,germany,,ltblu_circle
7417,86.3333333333,6.5064070986,,,Mott,Zu-0,SUI,Zu,47.3667,8.55,Albert Kranz,,CS78880,western_europe,,blu_circle
7418,63.5,3.5118845843,46.25,1.892969449,Monsanto,Zu-1,SUI,Zu,47.3667,8.55,Albert Kranz,,CS78881,admixed,,forbidden
7419,69,5.2281290471,43.25,2.5,Salk,Db-1,GER,Tenne/Ts.,50.3058,8.32213,Albert Kranz,,CS76471,germany,,ltblu_circle
7424,57.75,6.9940450861,35.5,1.732050808,Salk,Jl-3,CZE,Br,49.2,16.6166,Albert Kranz,,CS76519,central_europe,,ylw_circle
7427,101,6.2182527021,91.5,6.608075867,Salk,Ko-2,DEN,UNKNOWN-Denmark,,,Albert Kranz,,CS76531,central_europe,,ylw_circle
7430,72.5,7.8528126596,42.25,1.5,Salk,Nc-1,FRA,Vermois,48.6167,6.25,Albert Kranz,,CS76559,admixed,,forbidden
7438,77.75,3.2015621187,65,11.16542282,,N13,RUS,Konchezero,61.36,34.15,Andy Savushkin,,,,,
7458,79.5,5.6862407031,52,1,,Ber,DEN,Hau,55.675,12.5687,George Redei,,,,,
7460,75,4.3588989435,37,2,Salk,Da(1)-12,CZE,Unknown - Czech Republic,,,Igor Vizir,,CS76470,central_europe,,ylw_circle
7461,68,3.4641016151,48.75,3.774917218,Salk,H55,CZE,Relichova,49,15,Igor Vizir,,CS76897,germany,,ltblu_circle
7471,56.25,5.123475383,34,0.816496581,Salk,RLD-1,UNK,UNKNOWN,,,Maarten Koornneef,,CS76588,admixed,,forbidden
7477,74,9.5916630466,52.25,3.774917218,Monsanto,WAR,USA,Lincoln Woods State Park,41.7302,-71.2825,Massimo Pigliucci,,CS78853,admixed,,forbidden
7514,80.25,5.123475383,57.33333333,1.527525232,Salk,RRS-7,USA,RRS,41.5609,-86.4251,Joy Bergelson,,CS76593,admixed,,forbidden
7515,73.75,4.5734742447,73.5,9.469248474,"MPI,Salk",RRS-10,USA,RRS,41.5609,-86.4251,Joy Bergelson,,CS76592,germany,,ltblu_circle
7516,105,6.9761498455,117,19.21804707,GMI,Vår2-1,SWE,Vår2,55.58,14.334,Magnus Nordborg,2000-06-01 00:00:00,CS78830,germany,,ltblu_circle
7517,115,2.9439202888,113.75,6.020797289,GMI,Vår2-6,SWE,Vår2,55.58,14.334,Magnus Nordborg,2000-06-01 00:00:00,CS78831,germany,,ltblu_circle
7518,93.25,6.849574196,80.66666667,3.055050463,,ÖMö2-1,SWE,ÖMö2,56.14,15.78,Magnus Nordborg,2000-05-14 0:00:00,,,,
7519,90.25,2.3629078131,89.66666667,2.516611478,,ÖMö2-3,SWE,ÖMö2,56.14,15.78,Magnus Nordborg,2000-05-14 0:00:00,,,,
7520,73.25,0.9574271078,48.75,3.774917218,Salk,Lp2-2,CZE,Lp2,49.38,16.81,Ivo Cetl,,CS76546,central_europe,,ylw_circle
7521,70.75,5.6199051,54,4,Salk,Lp2-6,CZE,Lp2,49.38,16.81,Ivo Cetl,1991-01-01 00:00:00,CS77052,central_europe,,ylw_circle
7522,93,2.1602468995,79.25,2.986078811,,Mr-0,ITA,Mr,44.15,9.65,Albert Kranz,,,,,
7523,80,9.7638790106,68.75,2.986078811,Salk,Pna-17,USA,PNA,42.0945,-86.3253,Joy Bergelson,,CS76575,germany,,ltblu_circle
7524,61.25,0.9574271078,40.75,1.258305739,,Rmx-A02,USA,RMX,42.036,-86.511,Joy Bergelson,,,,,
7525,63,4.2426406871,41.75,0.5,Salk,Rmx-A180,USA,RMX,42.036,-86.511,Joy Bergelson,,CS77218,germany,,ltblu_circle
7526,75.5,6.0277137733,71,4.242640687,,Pna-10,USA,PNA,42.0945,-86.3253,Joy Bergelson,,,,,
763,65.75,2.0615528128,39,2.943920289,Salk,Kar-1,KGZ,Karakol,42.3,74.3667,Olivier Loudet,2004-07-03 00:00:00,CS76522,asia,,purple_circle
765,56.75,6.1305247192,36.66666667,2.081665999,Salk,Sus-1,KGZ,Susamyr,42.1833,73.4,Olivier Loudet,2004-07-04 00:00:00,CS76607,asia,,purple_circle
766,63.5,5.0662280512,41.75,2.986078811,Salk,Dja-1,KGZ,Djarly,42.5833,73.6333,Olivier Loudet,2004-07-07 00:00:00,CS76473,asia,,purple_circle
768,76.5,7.7244201508,78.25,4.991659711,Salk,Zal-1,KGZ,Zalisky,42.8,76.35,Olivier Loudet,2004-07-18 00:00:00,CS76634,asia,,purple_circle
770,75.25,4.3493294502,72.25,12.81600562,,Kyr-1,KGZ,Kyrgyzata,40.046526,72.683613,Olivier Loudet,2004-07-25 00:00:00,,,,
7717,82.75,3.0956959368,76.25,8.261355821,Monsanto,KNO1.37,USA,Knox35,41.273,-86.625,Megan Dunning,2005-04-27 00:00:00,CS76972,germany,,ltblu_circle
772,67.5,3.8729833462,43.5,2.645751311,Salk,Neo-6,TJK,Neo-Shahdara,37.35,72.4667,Olivier Loudet,2004-07-25 00:00:00,CS76560,asia,,purple_circle
7917,82.25,4.7871355388,68.75,7.889866919,Monsanto,PNA3.10,USA,PNA,42.0945,-86.3253,Megan Dunning,2005-05-04 00:00:00,CS77183,germany,,ltblu_circle
7947,82.25,3.5,81.5,13.47837775,Monsanto,PNA3.40,USA,PNA,42.0945,-86.3253,Megan Dunning,2005-05-04 00:00:00,CS77184,germany,,ltblu_circle
801,94.75,5.5602757725,88.25,2.061552813,Monsanto,KYC-33,USA,KYC,37.9169,-84.4639,Kathleen Donohue,1999-05-04 00:00:00,CS76992,germany,,ltblu_circle
8077,70,3.3665016461,57.75,5.123475383,Monsanto,PT2.21,USA,PT (La Porte),41.3423,-86.7368,Megan Dunning,2005-04-25 00:00:00,CS77191,germany,,ltblu_circle
8132,74,2,67.33333333,4.932882862,Monsanto,RMX3.22,USA,RMX,42.036,-86.511,Megan Dunning,2005-05-07 00:00:00,CS77219,germany,,ltblu_circle
8213,58.75,5.737304826,36,1.414213562,,Pro-0,ESP,Pro,43.25,-6,Joy Bergelson,,,,,
8214,65,4.5460605657,54.5,5.567764363,Salk,Gy-0,FRA,Gy,49,2,Albert Kranz,,CS78901,western_europe,,blu_circle
8222,100,8.8317608663,93.25,6.34428877,GMI,Lis-2,SWE,Lis,56.0328,14.775,Magnus Nordborg,2000-06-13 00:00:00,CS77043,south_sweden,,red_circle
8227,120,7.7028133389,NA,NA,GMI,THÖ 03,SWE,THÖ,62.7989,17.9103,Mattias Jakobsson,2003-01-01 0:00:00,CS77367,north_sweden,,orange_circle
8230,110.3333333333,1.5275252317,103,37.98683983,GMI,Algutsrum,SWE,Algutsrum,56.68,16.5,Magnus Nordborg,,CS76657,south_sweden,,red_circle
8231,100.75,3.3040379336,108.6666667,15.94783162,GMI,Brö1-6,SWE,Brömsebro,56.3,16,Magnus Nordborg,2000-05-15 00:00:00,CS76726,south_sweden,,red_circle
8233,75.5,5.8022983952,69.25,6.551081336,Salk,Dem-4,USA,Dem,41.1876,-87.1923,Joy Bergelson,,CS76794,germany,,ltblu_circle
8234,102.6666666667,10.9696551146,92.75,6.34428877,"GMI,Salk",Gul1-2,SWE,Gullabo,56.4606,15.8127,Magnus Nordborg,2000-05-15 0:00:00,CS76896,south_sweden,,red_circle
8235,74.5,5,68.75,8.655441448,Salk,Hod,CZE,Hodonin,48.8,17.1,Jirina Relichov,2000-05-31 0:00:00,CS76924,central_europe,,ylw_circle
8236,74,1,64.66666667,11.54700538,Salk,HSm,CZE,Horni Smrcne,49.33,15.76,Jirina Relichov,2000-05-31 0:00:00,CS76941,central_europe,,ylw_circle
8237,97.25,2.6299556397,98.75,7.5,GMI,Kävlinge-1,SWE,Kävlinge,55.8,13.1,Torbjorn Sall,1999-01-01 00:00:00,CS76964,south_sweden,,red_circle
8238,79.5,3,52.25,2.5,Salk,Kent,UK,Kent,51.15,0.4,Magnus Nordborg,,CS76967,germany,,ltblu_circle
8239,56,4,42.5,2.380476143,Salk,PHW-3,GER,Koeln,51,7,Paul Williams,,CS76976,germany,,ltblu_circle
8240,94.5,5.7445626465,83,4.582575695,GMI,Kulturen-1,SWE,Kulturen,55.705,13.196,Torbjorn Sall,,CS76987,south_sweden,,red_circle
8241,90.75,4.5734742447,66.25,2.061552813,GMI,Liarum,SWE,Liarum,55.9473,13.821,Torbjorn Sall,,CS77038,south_sweden,,red_circle
8242,116.75,8.6554414484,132,NA,GMI,Lillö-1,SWE,Lillö,56.1494,15.7884,Magnus Nordborg,2000-05-14 00:00:00,CS77039,south_sweden,,red_circle
8243,80,5.4772255751,68.25,1.707825128,Salk,PHW-2,ITA,Florence,43.7703,11.2547,Paul Williams,,CS77173,western_europe,,blu_circle
8244,90.5,8.346656017,58.5,1.290994449,Salk,PHW-34,FRA,Bretagny Sur Orge,48.6103,2.3086,Paul Williams,,CS77174,western_europe,,blu_circle
8246,70.5,5.4467115461,76.5,5.802298395,Salk,NC-6,USA,NC,35,-79.18,Joy Bergelson,,CS77124,germany,,ltblu_circle
8247,98,4.2426406871,94.66666667,3.055050463,GMI,San-2,SWE,Sandåkra,56.07,13.74,Magnus Nordborg,2000-05-12 00:00:00,CS77233,south_sweden,,red_circle
8249,93.75,2.6299556397,88,2.645751311,GMI,Vimmerby,SWE,Vimmerby,57.7,15.8,Magnus Nordborg,,CS78845,south_sweden,,red_circle
8256,73.25,6.3966136875,45.25,2.753785274,GMI,Bå1-2,SWE,Bå,56.4,12.9,Magnus Nordborg,2000-05-01 00:00:00,CS76676,admixed,,forbidden
8258,93,NA,NA,NA,GMI,Bå4-1,SWE,Bå,56.4,12.9,Magnus Nordborg,2000-05-01 00:00:00,CS76677,south_sweden,,red_circle
8259,88,9.5393920142,65.5,2.121320344,GMI,Bå5-1,SWE,Bå,56.4,12.9,Magnus Nordborg,2000-05-01 00:00:00,CS76678,south_sweden,,red_circle
8264,65.5,2.3804761428,63.5,3.535533906,Salk,Bla-1,ESP,Bla,41.6833,2.8,Albert Kranz,,CS76451,spain,,pink_circle
8266,105,2.7080128015,NA,NA,,Boo2-1,SWE,Boo2,55.86,13.51,Magnus Nordborg,2000-05-14 00:00:00,,,,
8275,78.3333333333,3.0550504633,57,3,,Cen-0,FRA,Cen,49,0.5,Albert Kranz,,,,,
8283,84.25,4.3493294502,82.66666667,8.144527815,GMI,Dra3-1,SWE,Dra3,55.76,14.12,Magnus Nordborg,2000-06-01 00:00:00,CS76811,south_sweden,,red_circle
8284,83.25,6.2383224241,76,6.377042157,Salk,DraII-1,CZE,DraII,49.4112,16.2815,Jirina Relichov,2000-05-31 0:00:00,CS76813,central_europe,,ylw_circle
8285,66.5,1.2909944487,51.66666667,4.163331999,Salk,DraIII-1,CZE,DraIII,49.4112,16.2815,Jirina Relichov,2000-05-31 0:00:00,CS76815,central_europe,,ylw_circle
8290,63.25,5.6199051,44.25,2.62995564,Salk,En-1,GER,Enkheim/Frankfurt,50,8.5,Albert Kranz,,CS76841,central_europe,,ylw_circle
8297,85.75,1.2583057392,79,3.559026084,Salk,Ge-0,SUI,Ge,46.5,6.08,Albert Kranz,,CS76875,western_europe,,blu_circle
8306,102.5,10.3762549442,95,3.605551275,GMI,Hov4-1,SWE,Hovdala,56.1,13.74,Magnus Nordborg,2000-05-12 00:00:00,CS76936,south_sweden,,red_circle
8307,79.25,1.2583057392,64.25,5.439056291,GMI,Hovdala-6,SWE,Hovdala,56.1,13.74,Torbjorn Sall,1999-01-01 00:00:00,CS76938,south_sweden,,red_circle
8311,65.5,8.9628864398,59.25,10.34005158,Salk,In-0,AUT,In,47.5,11.5,Albert Kranz,,CS78903,central_europe,,ylw_circle
8312,65.75,2.2173557826,52,14.02378931,"MPI,Salk",Is-0,GER,Isenburg/Neuwied,50.5,7.5,Albert Kranz,,CS78904,germany,,ltblu_circle
8325,77,9.2014491612,64.33333333,2.081665999,,Lip-0,POL,Lip,50,19.3,Albert Kranz,,,,,
8326,86.75,3.4034296428,58,2.943920289,GMI,Lis-1,SWE,Lis,56.0328,14.775,Magnus Nordborg,2000-06-13 0:00:00,CS77042,south_sweden,,red_circle
8334,74.75,4.9916597106,54,1.732050808,GMI,Lu-1,SWE,Lund,55.71,13.2,Albert Kranz,,CS77056,admixed,,forbidden
8335,100,4.6904157598,92.25,3.201562119,GMI,Lund,SWE,Lund,55.71,13.2,Magnus Nordborg,,CS77060,south_sweden,,red_circle
8337,74,3.559026084,72.5,4.725815626,Salk,Mir-0,ITA,Mir,44,12.37,Albert Kranz,,CS76551,western_europe,,blu_circle
8343,81.25,5.7951128836,59.75,3.774917218,Salk,Na-1,FRA,Na,47.5,1.5,Albert Kranz,,CS76558,admixed,,forbidden
8351,103,5.1639777949,97.5,3.785938897,GMI,Ost-0,SWE,Ost,60.25,18.37,Albert Kranz,,CS77154,north_sweden,,orange_circle
8353,50.75,4.9244289009,35.25,0.957427108,,Pa-1,ITA,Pa,38.07,13.22,Albert Kranz,,,,,
8354,82,3.1622776602,58.75,3.5,Salk,Per-1,RUS,Per,58,56.3167,Albert Kranz,,CS76571,asia,,purple_circle
8357,71.75,2.2173557826,55.5,2.380476143,Salk,Pla-0,ESP,Pla,41.5,2.25,Albert Kranz,,CS76573,spain,,pink_circle
8365,74,13.3416640641,39.5,3,Salk,Rak-2,CZE,Rak,49,16,Albert Kranz,,CS77201,central_europe,,ylw_circle
8366,78.3333333333,2.0816659995,62.75,30.18139604,Salk,Rd-0,GER,Rodenbach/Dill,50.5,8.5,Albert Kranz,,CS76584,admixed,,forbidden
8369,98,7.0710678119,94.66666667,5.507570547,GMI,Rev-1,SWE,Rev1,55.6942,13.4504,Magnus Nordborg,1999-05-16 00:00:00,CS77214,south_sweden,,red_circle
8376,103,8.1240384046,104,6.976149845,GMI,Sanna-2,SWE,San,62.69,18,Magnus Nordborg,2000-06-25 00:00:00,CS77234,north_sweden,,orange_circle
8378,66.25,6.3966136875,50.33333333,3.055050463,,Sap-0,CZE,Sap,49.49,14.24,Albert Kranz,,,,,
8386,75,2.1602468995,49,1.414213562,GMI,Sr:5,SWE,Sr,58.9,11.2,Ivo Cetl,1992-07-01 00:00:00,CS77268,central_europe,,ylw_circle
8387,74.25,7.5,48.33333333,1.154700538,GMI,St-0,SWE,St,59,18,Albert Kranz,,CS77270,germany,,ltblu_circle
8419,94.25,20.6135068988,58.75,4.11298756,Salk,Wil-1,LTU,Wil,54.6833,25.3167,Albert Kranz,,CS78855,central_europe,,ylw_circle
8420,74.75,5.8523499554,47.5,2.380476143,Salk,Kelsterbach-4,GER,Kelsterbach,50.0667,8.5333,Paul Williams,,CS76525,germany,,ltblu_circle
8422,116.75,6.7515430335,116.25,17.01714821,GMI,Fjä1-1,SWE,Fjä1,56.06,14.29,Magnus Nordborg,2000-05-14 00:00:00,CS76859,south_sweden,,red_circle
8423,98.5,24.0762677063,69.75,8.995369179,,Hov2-1,SWE,Hov2,56.1,13.74,Magnus Nordborg,2000-05-12 00:00:00,,,,
8424,68.25,4.9916597106,80,3.366501646,Salk,Kas-2,IND,Kas,35,77,Shauna Somerville,1976-01-01 0:00:00,CS78905,asia,,purple_circle
8424,68.25,4.9916597106,75.5,5.066228051,Salk,Kas-2,IND,Kas,35,77,Shauna Somerville,1976-01-01 0:00:00,CS78905,asia,,purple_circle
8426,62.75,3.4034296428,40.25,1.258305739,GMI,Ull1-1,SWE,Ull1,56.06,13.97,Magnus Nordborg,2000-05-14 0:00:00,CS78816,south_sweden,,red_circle
8428,66.75,8.995369179,41.5,0.577350269,,Uod-2,AUT,Uod,48.3,14.45,Marcus Koch,2000-06-23 00:00:00,,,,
8430,90.5,3.109126351,78,1.154700538,,Lisse,NED,Lisse,52.25,4.5667,Paul Williams,,,,,
8472,63.5,6.8068592856,40.5,1.290994449,,LP3413.41,USA,LP,41.6862,-86.8513,Justin Borevitz,,,,,
8584,89,7.0710678119,74.75,8.883505314,,328ME059,USA,ME (Benton Harbor),42.093,-86.359,Justin Borevitz,2006-03-28 00:00:00,,,,
870,72.5,1.7320508076,62.25,10.0124922,Monsanto,MIC-31,USA,MIC,41.8266,-86.4366,Kathleen Donohue,1999-05-21 00:00:00,CS77082,germany,,ltblu_circle
88,61.25,4.7871355388,50.5,7.778174593,Monsanto,CYR,FRA,CYR,47.4,0.683333,Valerie Le Corre,,CS76790,western_europe,,blu_circle
9045,88.75,14.8632656797,78,24.04163056,,RMXF413.15,USA,RMXF,42.039,-86.5154,Justin Borevitz,,,,,
9057,87.5,4.2031734043,67.5,1.732050808,GMI,Vinslöv,SWE,Vinslöv,56.1,13.9167,Torbjorn Sall,,CS78847,south_sweden,,red_circle
9058,113.25,5.1881274721,123,NA,GMI,Västervik,SWE,Västervik,57.75,16.6333,Magnus Nordborg,,CS78834,admixed,,forbidden
9061,97.25,2.8722813233,102.6666667,0.577350269,,Dog-5,TUR,Dogruyol,38.3011,42.2239,James Beck,,,,,
9063,97.75,3.4034296428,98.75,0.957427108,,Dog-7,TUR,Dogruyol,38.3011,42.2239,James Beck,,,,,
9064,94.75,7.2284161474,107.6666667,8.504900548,,Dog-8,TUR,Dogruyol,38.3011,42.2239,James Beck,,,,,
9066,95.25,3.5939764421,101,6,,Xan-2,AZE,Xanbulan,38.6536,48.7992,James Beck,,,,,
9067,101.75,3.8622100754,130,5.656854249,Monsanto,Xan-3,AZE,Xanbulan,38.6536,48.7992,James Beck,,CS78860,italy_balkan_caucasus,,wht_circle
9069,82.75,4.9244289009,90.75,1.707825128,Monsanto,Xan-5,AZE,Xanbulan,38.6536,48.7992,James Beck,,CS78861,italy_balkan_caucasus,,wht_circle
9070,80,4.7609522857,88.5,5.686240703,Monsanto,Xan-6,AZE,Xanbulan,38.6536,48.7992,James Beck,,CS78862,italy_balkan_caucasus,,wht_circle
9073,93.25,4.0311288741,101.5,2.380476143,,Lerik1-2,AZE,Lerik,38.7406,48.6131,James Beck,,,,,
9075,93.25,2.5,98.25,6.075908711,Monsanto,Lerik1-4,AZE,Lerik,38.7406,48.6131,James Beck,,CS77023,italy_balkan_caucasus,,wht_circle
9078,100.25,5.737304826,104.25,4.425306016,Monsanto,Lerik1-7,AZE,Lerik,38.7406,48.6131,James Beck,,CS77024,italy_balkan_caucasus,,wht_circle
9079,101,2.3094010768,102,0,Monsanto,Lerik2-1,AZE,Lerik,38.7833,48.5517,James Beck,,CS77025,italy_balkan_caucasus,,wht_circle
9081,91.25,4.716990566,99.66666667,7.571877794,Monsanto,Lerik2-3,AZE,Lerik,38.7833,48.5517,James Beck,,CS77026,italy_balkan_caucasus,,wht_circle
9082,91.25,3.7749172176,100.3333333,2.516611478,,Lerik2-4,AZE,Lerik,38.7833,48.5517,James Beck,,,,,
9084,103.75,3.5939764421,114.25,4.645786622,Monsanto,Lerik2-6,AZE,Lerik,38.7833,48.5517,James Beck,,CS77028,italy_balkan_caucasus,,wht_circle
9085,103,3.559026084,101,4.618802154,Monsanto,Lerik2-7,AZE,Lerik,38.7833,48.5517,James Beck,,CS77029,italy_balkan_caucasus,,wht_circle
9089,88.6666666667,4.7258156263,125.5,2.121320344,Monsanto,Nar-3,AZE,Narimanabad,38.9522,48.925,James Beck,,CS77119,italy_balkan_caucasus,,wht_circle
9090,89.5,3.6968455021,122,7.071067812,,Nar-4,AZE,Narimanabad,38.9522,48.925,James Beck,,,,,
9091,99.75,4.1129875598,97.5,3.511884584,Monsanto,Nar-5,AZE,Narimanabad,38.9522,48.925,James Beck,,CS77121,italy_balkan_caucasus,,wht_circle
9094,93.5,3.4156502553,91,5,,Istisu-4,AZE,Istisu,38.9786,48.5594,James Beck,,,,,
9095,104,3.4641016151,113.3333333,4.041451884,Monsanto,Istisu-5,AZE,Istisu,38.9786,48.5594,James Beck,,CS76950,italy_balkan_caucasus,,wht_circle
9096,105,1.4142135624,121.3333333,8.020806277,,Istisu-6,AZE,Istisu,38.9786,48.5594,James Beck,,,,,
9098,99.75,2.2173557826,99.5,18.08314132,,Istisu-8,AZE,Istisu,38.9786,48.5594,James Beck,,,,,
9099,100.25,4.0311288741,112.6666667,4.509249753,Monsanto,Istisu-9,AZE,Istisu,38.9786,48.5594,James Beck,,CS76953,italy_balkan_caucasus,,wht_circle
9100,77.5,9.1833182093,74,2.645751311,Monsanto,Lag1-2,GEO,Lagodechi,41.8296,46.2831,James Beck,,CS76998,italy_balkan_caucasus,,wht_circle
9102,83.75,3.4034296428,80.75,5.439056291,Monsanto,Lag1-4,GEO,Lagodechi,41.8296,46.2831,James Beck,,CS76999,italy_balkan_caucasus,,wht_circle
9103,83.25,7.5,82.75,6.396613687,Monsanto,Lag1-5,GEO,Lagodechi,41.8296,46.2831,James Beck,,CS77000,italy_balkan_caucasus,,wht_circle
9104,60.75,2.9860788112,60,5.477225575,Monsanto,Lag1-6,GEO,Lagodechi,41.8296,46.2831,James Beck,,CS77001,italy_balkan_caucasus,,wht_circle
9105,77.25,5.3150729064,78.75,10.71991915,Monsanto,Lag1-7,GEO,Lagodechi,41.8296,46.2831,James Beck,,CS77002,italy_balkan_caucasus,,wht_circle
9106,87.25,5.123475383,87.5,4.932882862,Monsanto,Lag1-8,GEO,Lagodechi,41.8296,46.2831,James Beck,,CS77003,italy_balkan_caucasus,,wht_circle
9111,100.5,1.2909944487,89.25,4.645786622,Monsanto,Lag2-4,GEO,Lagodechi,41.8296,46.2831,James Beck,,CS77005,italy_balkan_caucasus,,wht_circle
9113,76,11.105554166,70.25,9.069178574,Monsanto,Lag2-6,GEO,Lagodechi,41.8296,46.2831,James Beck,,CS77006,italy_balkan_caucasus,,wht_circle
9114,99.75,3.6855573979,100.5,13.43502884,Monsanto,Lag2-7,GEO,Lagodechi,41.8296,46.2831,James Beck,,CS77007,italy_balkan_caucasus,,wht_circle
9115,91.25,7.5443135318,71.75,28.2415179,Monsanto,Lag2-10,GEO,Lagodechi,41.8296,46.2831,James Beck,,CS77004,italy_balkan_caucasus,,wht_circle
9119,97.5,2.0816659995,110,11.35781669,,Bak-3,GEO,Bakuriani,41.7942,43.4767,James Beck,,,,,
9120,105.5,1.9148542155,125,13,,Bak-4,GEO,Bakuriani,41.7942,43.4767,James Beck,,,,,
9121,105.25,1.7078251277,102,11.13552873,Monsanto,Bak-5,GEO,Bakuriani,41.7942,43.4767,James Beck,,CS76685,italy_balkan_caucasus,,wht_circle
9124,104.5,5.7445626465,118.25,9.673847907,,Bak-9,GEO,Bakuriani,41.7942,43.4767,James Beck,,,,,
9125,74,4.3204937989,69.25,3.862210075,Monsanto,Geg-14,ARM,Geghard,40.1408,44.8203,James Beck,,CS76876,asia,,purple_circle
9128,69.5,4.6547466813,61,4.242640687,Monsanto,Yeg-2,ARM,Yeghegis,39.8692,45.3622,James Beck,,CS78864,asia,,purple_circle
9130,72.75,2.8722813233,63.25,1.707825128,Monsanto,Yeg-4,ARM,Yeghegis,39.8692,45.3622,James Beck,,CS78865,asia,,purple_circle
9131,72.5,5.0662280512,63.5,6.403124237,Monsanto,Yeg-5,ARM,Yeghegis,39.8692,45.3622,James Beck,,CS78866,asia,,purple_circle
9133,73.25,2.9860788112,68,4.082482905,Monsanto,Yeg-7,ARM,Yeghegis,39.8692,45.3622,James Beck,,CS78867,asia,,purple_circle
9134,79.75,5.9651767227,64.5,3.535533906,Monsanto,Yeg-8,ARM,Yeghegis,39.8692,45.3622,James Beck,,CS78868,asia,,purple_circle
915,63.75,4.7871355388,43.5,1.290994449,Monsanto,LIN S-5,USA,LIN S,41.8972,-71.4378,Kathleen Donohue,1999-01-01 00:00:00,CS77040,germany,,ltblu_circle
9298,60,7.118052168,45.5,0.577350269,Monsanto,Edi-1,UK,Edinburgh,55.9681,-3.21833,James Beck,,CS76832,western_europe,,blu_circle
9312,75.25,7.8049129826,57.5,2.886751346,Monsanto,Ullapool-8,UK,Ullapool,57.9,-5.1525,James Beck,,CS78821,western_europe,,blu_circle
9314,74.25,8.1802607945,60,3.464101615,Monsanto,Gol-2,UK,Golspie,57.9672,-3.96722,James Beck,,CS76883,western_europe,,blu_circle
932,78,5.0990195136,68.75,5.439056291,Monsanto,CHA-41,USA,CHA,42.3634,-71.1445,Kathleen Donohue,2002-06-13 00:00:00,CS76765,western_europe,,blu_circle
9321,106.75,13.7689263682,140,NA,GMI,Ådal 1,SWE,Ådal,62.8622,18.336,Alison Anastasio,,CS76643,north_sweden,,orange_circle
9323,97,5.4160256031,80.75,5.560275773,GMI,Ådal 3,SWE,Ådal,62.8622,18.336,Alison Anastasio,,CS76644,north_sweden,,orange_circle
9330,90.5,2.1213203436,,,,Bag 1,SWE,Bagregatan,56.9591,16.4052,Alison Anastasio,,,,,
9332,114.25,7.9739158093,129,NA,GMI,Bar 1,SWE,Barsta,62.8698,18.381,Alison Anastasio,,CS76688,north_sweden,,orange_circle
9336,84,2.8284271247,66.75,2.872281323,GMI,Bön 1,SWE,Bönhamn,62.8794,18.4473,Alison Anastasio,,CS76715,admixed,,forbidden
9339,104.5,3.8729833462,116.5,9.192388155,GMI,Böt 1,SWE,Bötteryd,57.7133,15.0689,Alison Anastasio,,CS76720,south_sweden,,red_circle
9343,94.5,2.5166114784,88,2.160246899,GMI,Dju-1,SWE,Djupvik,57.3089,18.1512,Alison Anastasio,,CS78896,admixed,,forbidden
9352,127.75,2.5,134.3333333,5.507570547,GMI,Död 2,SWE,Döderhult,57.2608,16.3675,Alison Anastasio,,CS76797,south_sweden,,red_circle
9353,126,13.638181697,134,NA,GMI,Död 3,SWE,Döderhult,57.2608,16.3675,Alison Anastasio,,CS76798,south_sweden,,red_circle
9356,100.5,2.0816659995,118,14.17744688,,Eden 17,SWE,Eden,62.8762,18.1746,Alison Anastasio,,CS78645,,,
9363,134,6.2716292407,NA,NA,GMI,EdJ 2,SWE,Edsättersjön,62.9147,18.4045,Alison Anastasio,,CS76833,north_sweden,,orange_circle
9369,81.75,0.5,71.25,3.095695937,GMI,EkS 2,SWE,Eksjöholm-Sud,57.6781,14.9986,Alison Anastasio,,CS76837,south_sweden,,red_circle
9371,129.25,5.8523499554,145,NA,GMI,FäL 1,SWE,Fäberget-Lower,63.016,18.3175,Alison Anastasio,,CS76852,north_sweden,,orange_circle
9380,101,3.3665016461,98.25,2.753785274,GMI,FlyA 3,SWE,Flyinge,55.7488,13.3742,Alison Anastasio,,CS76865,south_sweden,,red_circle
9381,98.25,10.2428837085,NA,NA,GMI,Fri 1,SWE,Frisaboda,55.8106,14.2091,Alison Anastasio,,CS76868,admixed,,forbidden
9382,99,7.6157731059,110.6666667,8.386497084,GMI,Fri 2,SWE,Frisaboda,55.8106,14.2091,Alison Anastasio,,CS76869,admixed,,forbidden
9383,99.3333333333,2.8867513459,103,1,GMI,Fri 3,SWE,Frisaboda,55.8106,14.2091,Alison Anastasio,,CS76870,admixed,,forbidden
9386,115.5,8.5829287931,107.75,10.71991915,GMI,Grön 12,SWE,Grönsvik,62.806,18.1896,Alison Anastasio,,CS76891,north_sweden,,orange_circle
9388,127.25,4.3493294502,137,NA,GMI,Grön 14,SWE,Grönsvik,62.806,18.1896,Alison Anastasio,,CS76892,north_sweden,,orange_circle
9390,79.75,3.3040379336,55,2,GMI,Hadd-1,SWE,Haddetorp,57.3263,15.8979,Alison Anastasio,,CS78659,south_sweden,,red_circle
9391,85,2.7080128015,64.5,2.081665999,GMI,Hadd-2,SWE,Haddetorp,57.3263,15.8979,Alison Anastasio,,CS76905,south_sweden,,red_circle
9392,87.25,3.6855573979,59,1.632993162,GMI,Hadd-3,SWE,Haddetorp,57.3263,15.8979,Alison Anastasio,,CS76906,south_sweden,,red_circle
9394,110.6666666667,2.0816659995,110.5,3.696845502,GMI,Hag-2,SWE,Haga Park,56.5804,16.4063,Alison Anastasio,,CS76907,admixed,,forbidden
9395,104.5,4.7958315233,118.25,12.52663828,GMI,Hal-1,SWE,Hallamåla,57.5089,15.0105,Alison Anastasio,,CS76908,south_sweden,,red_circle
9399,97,5.5976185412,91,7.393691004,GMI,Hamm-1,SWE,Hammar,55.4234,13.9905,Alison Anastasio,,CS76910,south_sweden,,red_circle
9402,92.25,6.7019897543,78.75,1.5,GMI,Hel-3,SWE,Helgarp,57.8765,14.8549,Alison Anastasio,,CS76918,south_sweden,,red_circle
9404,95,3.559026084,78.75,2.5,GMI,HolA-1 1,SWE,Holmby,55.7491,13.399,Alison Anastasio,,CS76926,south_sweden,,red_circle
9405,103.5,7.1879528843,95.5,8.266397845,GMI,HolA-1 2,SWE,Holmby,55.7491,13.399,Alison Anastasio,,CS76927,south_sweden,,red_circle
9407,91.75,5.9651767227,75,0,GMI,HolA-2 2,SWE,Holmby,55.7491,13.399,Alison Anastasio,,CS76928,south_sweden,,red_circle
9408,108.25,3.6855573979,124,20.95232684,GMI,Kal 1,SWE,Kalvaboda,56.047,13.9519,Alison Anastasio,,CS76959,south_sweden,,red_circle
9409,108.25,3.3040379336,119.25,19.25919694,GMI,Kia 1,SWE,Kiaby,56.0573,14.302,Alison Anastasio,,CS76968,south_sweden,,red_circle
9412,87.25,4.7871355388,64,6,GMI,Kor 3,SWE,Korsvägen,57.2746,16.1494,Alison Anastasio,,CS76981,south_sweden,,red_circle
9413,86,0.8164965809,75,6.92820323,GMI,Kor 4,SWE,Korsvägen,57.2746,16.1494,Alison Anastasio,,CS76982,south_sweden,,red_circle
9416,135.5,8.8128693776,129,NA,GMI,Kru-3,SWE,Krusmyntagården,57.7215,18.3837,Alison Anastasio,,CS76986,south_sweden,,red_circle
9421,107,5.2915026221,103,6.055300708,GMI,Lan 1,SWE,Landön,55.9745,14.3997,Alison Anastasio,,CS77009,south_sweden,,red_circle
9427,96.75,4.5734742447,119.5,7.778174593,GMI,Näs 2,SWE,Näsänget,62.8815,18.4055,Alison Anastasio,,CS77122,north_sweden,,orange_circle
9433,138,12.7279220614,137,NA,GMI,Nyl 13,SWE,Nyland,62.9513,18.2763,Alison Anastasio,,CS77135,north_sweden,,orange_circle
9434,110.25,3.8622100754,102.25,5.560275773,,Öde 2,SWE,Öden,62.8959,18.3659,Alison Anastasio,,CS78679,,,
9436,89,5.4772255751,77.5,26.61453237,GMI,Puk-1,SWE,Pukavik Bus,56.1633,14.6806,Alison Anastasio,,CS77194,south_sweden,,red_circle
9437,91.75,5.5602757725,90,8.602325267,GMI,Puk-2,SWE,Pukavik Bus,56.1633,14.6806,Alison Anastasio,,CS77195,south_sweden,,red_circle
9442,104.75,4.6457866216,113.25,27.47574688,GMI,Sim-1,SWE,Simrishamn,55.5678,14.3398,Alison Anastasio,,CS77250,germany,,ltblu_circle
9450,88,2.9439202888,78.5,5.066228051,GMI,Spro 1,SWE,Sproge,57.2545,18.2109,Alison Anastasio,,CS77263,south_sweden,,red_circle
9451,107.5,3.5118845843,113.6666667,11.2398102,GMI,Spro 2,SWE,Sproge,57.2545,18.2109,Alison Anastasio,,CS77264,south_sweden,,red_circle
9452,101.5,6.2449979984,103,12.1380943,GMI,Spro 3,SWE,Sproge,57.2545,18.2109,Alison Anastasio,,CS77265,south_sweden,,red_circle
9453,106.5,4.5092497528,129.5,7.778174593,GMI,Stenk-2,SWE,Stenkyrka,57.8009,18.5162,Alison Anastasio,,CS77274,south_sweden,,red_circle
9454,101.25,2.2173557826,138,4.242640687,GMI,Stenk-3,SWE,Stenkyrka,57.8009,18.5162,Alison Anastasio,,CS77275,south_sweden,,red_circle
9455,93.25,6.0207972894,102.75,21.31314149,GMI,Stenk-4,SWE,Stenkyrka,57.8009,18.5162,Alison Anastasio,,CS77276,south_sweden,,red_circle
9470,102.6666666667,1.1547005384,90.5,4.949747468,GMI,Tur-4,SWE,Turlunda,57.6511,14.8043,Alison Anastasio,,CS77399,south_sweden,,red_circle
9476,120.25,1.7078251277,126.3333333,12.42309677,GMI,VårA 1,SWE,Vårhallarna,55.5796,14.3336,Alison Anastasio,,CS78832,germany,,ltblu_circle
9481,110.5,8.8881944173,121,1.414213562,GMI,Yst-1,SWE,Ystad,55.4242,13.8484,Alison Anastasio,,CS78869,south_sweden,,red_circle
9503,64,5.8878405776,53.5,3.109126351,Monsanto,11C1,UK,11 Hillend,55.8877,-3.21072,Andrew Hudson,,CS76640,western_europe,,blu_circle
9506,77.75,2.6299556397,69,3.605551275,Monsanto,IP-Alo-0,POR,,40.11,-7.47,Carlos Alonso-Blanco,00/01/2007,CS76662,admixed,,forbidden
9507,55,2.4494897428,46.66666667,3.214550254,Monsanto,IP-Coa-0,POR,,38.45,-7.5,Carlos Alonso-Blanco,00/01/2005,CS76775,spain,,pink_circle
9508,62,3.7416573868,60.66666667,11.67618659,Monsanto,IP-Mos-1,POR,,40.04,-7.11,Carlos Alonso-Blanco,00/01/2007,CS77108,admixed,,forbidden
9509,64.5,5.5075705473,59,3,Monsanto,IP-Reg-0,POR,,39.29,-7.4,Carlos Alonso-Blanco,00/01/2005,CS77207,spain,,pink_circle
9510,59.25,4.5734742447,55.75,2.217355783,Monsanto,IP-Rei-0,POR,,38.75,-7.59,Carlos Alonso-Blanco,00/01/2005,CS77208,spain,,pink_circle
9511,64.25,5.9651767227,55,3.741657387,Monsanto,IP-Vav-0,POR,,38.53,-8.02,Carlos Alonso-Blanco,00/01/2005,CS78835,spain,,pink_circle
9512,51.25,5.8523499554,40.25,2.362907813,Monsanto,IP-Vid-1,POR,,38.22,-7.84,Carlos Alonso-Blanco,00/01/2005,CS78842,spain,,pink_circle
9513,71.75,4.5,63.33333333,6.506407099,Monsanto,IP-Adc-5,ESP,,38.77,-4.07,Carlos Alonso-Blanco,00/01/2003,CS76646,admixed,,forbidden
9514,72.5,3.8729833462,83.33333333,0.577350269,Monsanto,IP-Adm-0,ESP,,39.15,-4.54,Carlos Alonso-Blanco,00/01/2003,CS76647,spain,,pink_circle
9515,56.25,3.4034296428,51.25,2.986078811,Monsanto,IP-Ala-0,ESP,,39.72,-6.89,Carlos Alonso-Blanco,00/01/2007,CS76650,spain,,pink_circle
9516,67.75,4.6457866216,58.66666667,4.509249753,,IP-Ali-1,ESP,,39.9,-5.09,Carlos Alonso-Blanco,00/01/2008,,,,
9517,64,6.7823299831,35.75,0.5,Monsanto,IP-All-0,ESP,,42.19,-7.8,Carlos Alonso-Blanco,00/01/2007,CS76659,western_europe,,blu_circle
9518,92,3.559026084,87.5,0.707106781,Monsanto,IP-Alm-0,ESP,,39.88,-0.36,Carlos Alonso-Blanco,2004-12-31 0:00:00,CS76660,spain,Y,pink_circle
9519,77.25,4.1932485418,64.5,1.290994449,Monsanto,IP-Ang-0,ESP,,41.94,2.64,Xavier Picó,00/01/2005,CS78886,spain,,pink_circle
9520,113.5,13.5277492585,120.5,10.87811258,Monsanto,IP-Ara-4,ESP,,41.7,-3.68,Carlos Alonso-Blanco,00/01/2006,CS76670,spain,,pink_circle
9521,69.75,4.2720018727,68,10.44030651,Monsanto,IP-Bar-1,ESP,,41.43,2.13,Xavier Picó,00/01/2005,CS76689,spain,,pink_circle
9522,59,6.6833125519,60.33333333,7.023769169,Monsanto,IP-Bea-0,ESP,,36.52,-5.27,Carlos Alonso-Blanco,00/01/2004,CS76695,spain,,pink_circle
9523,86.75,6.1305247192,84.66666667,6.658328118,Monsanto,IP-Ben-0,ESP,,38.37,-2.66,Carlos Alonso-Blanco,00/01/2005,CS76700,admixed,,forbidden
9524,97.25,3.5939764421,99.66666667,8.020806277,Monsanto,IP-Ber-0,ESP,,42.52,-0.56,Carlos Alonso-Blanco,00/01/2005,CS78887,spain,,pink_circle
9525,91.75,3.6855573979,81.25,4.787135539,Monsanto,IP-Bis-0,ESP,,42.49,0.54,Xavier Picó,00/01/2005,CS76711,spain,,pink_circle
9526,65,8.0415587212,56.33333333,4.932882862,Monsanto,IP-Cab-3,ESP,,41.54,2.39,Xavier Picó,00/01/2006,CS76738,spain,,pink_circle
9527,86.25,6.3966136875,76.5,1,Monsanto,IP-Cad-0,ESP,,40.37,-5.74,Carlos Alonso-Blanco,00/01/2002,CS76739,admixed,,forbidden
9528,105.3333333333,16.8621864933,89.5,9.192388155,Monsanto,IP-Cal-0,ESP,,40.94,-1.37,Carlos Alonso-Blanco,00/01/2004,CS78890,spain,,pink_circle
9529,65,4.2426406871,63,8.755950358,Monsanto,IP-Cap-1,ESP,,36.97,-3.36,Carlos Alonso-Blanco,00/01/2006,CS76741,admixed,,forbidden
9530,90.5,3.8729833462,123,NA,Monsanto,IP-Car-1,ESP,,38.25,-4.32,Carlos Alonso-Blanco,00/01/2004,CS76742,admixed,,forbidden
9531,91,4.3204937989,92,0.816496581,Monsanto,IP-Cdc-3,ESP,,41.21,-4.54,Carlos Alonso-Blanco,00/01/2004,CS76761,spain,,pink_circle
9532,106,2.9439202888,108.6666667,6.806859286,Monsanto,IP-Cdo-0,ESP,,42.23,-4.64,Carlos Alonso-Blanco,00/01/2004,CS76762,spain,,pink_circle
9533,89,4.5460605657,79,2.645751311,Monsanto,IP-Cem-0,ESP,,41.15,-4.32,Carlos Alonso-Blanco,2004-12-31 0:00:00,CS76763,relict,Y,grn_circle
9534,69.75,4.2720018727,65.66666667,6.658328118,Monsanto,IP-Cmo-3,ESP,,40.05,-4.65,Carlos Alonso-Blanco,00/01/2005,CS76774,spain,,pink_circle
9535,93.5,3.3166247904,89,2.828427125,Monsanto,IP-Coc-1,ESP,,42.31,3.19,Xavier Picó,00/01/2005,CS76776,spain,,pink_circle
9536,99,1,103,7.071067812,Monsanto,IP-Cor-0,ESP,,40.83,-2,Carlos Alonso-Blanco,2004-12-31 0:00:00,CS76782,admixed,Y,forbidden
9537,64.25,3.8622100754,56,8.831760866,Monsanto,IP-Cum-1,ESP,,38.07,-6.66,Carlos Alonso-Blanco,00/01/2002,CS76787,spain,,pink_circle
9538,82.5,13.7719521734,98,7.071067812,,IP-Cur-4,ESP,,43.12,-8.09,Carlos Alonso-Blanco,00/01/2004,,,,
9539,78.5,7,91.25,1.258305739,Monsanto,IP-Deh-1,ESP,,40.29,-6.67,Carlos Alonso-Blanco,00/01/2005,CS76793,spain,,pink_circle
9540,75.25,8.4212033978,88.25,5.188127472,Monsanto,IP-Elb-0,ESP,,41.81,2.34,Xavier Picó,00/01/2005,CS76838,spain,,pink_circle
9541,68.5,5.5677643628,61.5,7.141428429,Monsanto,IP-Fue-2,ESP,,38.26,-5.42,Carlos Alonso-Blanco,00/01/2003,CS76871,spain,,pink_circle
9542,90,6.582805886,107.25,5.315072906,Monsanto,IP-Fun-0,ESP,,40.79,-4.05,Carlos Alonso-Blanco,2005-12-31 0:00:00,CS76872,relict,Y,grn_circle
9543,94.3333333333,4.5092497528,89.66666667,9.291573243,Monsanto,IP-Gra-0,ESP,,36.77,-5.39,Xavier Picó,2005-12-31 0:00:00,CS76886,relict,Y,grn_circle
9544,57.25,2.2173557826,53.5,2.516611478,Monsanto,IP-Gua-1,ESP,,39.4,-5.33,Carlos Alonso-Blanco,00/01/2005,CS76894,spain,,pink_circle
9545,83.5,9.5742710776,101,5.656854249,Monsanto,IP-Her-12,ESP,,39.4,-5.78,Carlos Alonso-Blanco,2004-12-31 0:00:00,CS76920,relict,Y,grn_circle
9546,148.5,11.5036226178,NA,NA,Monsanto,IP-Hom-4,ESP,,40.82,-1.68,Carlos Alonso-Blanco,00/01/2006,CS76929,spain,,pink_circle
9547,79.25,4.1932485418,70,2.708012802,Monsanto,IP-Hor-0,ESP,,41.67,2.62,Xavier Picó,00/01/2005,CS76930,spain,,pink_circle
9548,128,3.829708431,NA,NA,Monsanto,IP-Hoy-0,ESP,,40.4,-5,Carlos Alonso-Blanco,00/01/2004,CS76939,admixed,,forbidden
9549,91,4.8304589154,106.6666667,10.69267662,Monsanto,IP-Hum-2,ESP,,42.23,-3.69,Carlos Alonso-Blanco,2006-12-31 0:00:00,CS76943,relict,Y,grn_circle
9550,130.25,17.951323071,132,NA,Monsanto,IP-Iso-4,ESP,,43.05,-5.37,Carlos Alonso-Blanco,2006-12-31 0:00:00,CS76946,relict,Y,grn_circle
9551,102,10.4243305141,123,NA,Monsanto,IP-Jim-1,ESP,,42.28,-5.92,Carlos Alonso-Blanco,00/01/2007,CS76955,admixed,,forbidden
9552,128.75,9.0323492699,NA,NA,Monsanto,IP-Lab-7,ESP,,40.87,-4.5,Carlos Alonso-Blanco,00/01/2007,CS76995,admixed,,forbidden
9553,100.75,1.5,106,NA,Monsanto,IP-Ldd-0,ESP,,41.58,-4.71,Carlos Alonso-Blanco,00/01/2004,CS77012,spain,,pink_circle
9554,94,4.0824829046,104.25,6.551081336,Monsanto,IP-Lso-0,ESP,,38.86,-3.16,Carlos Alonso-Blanco,2004-12-31 0:00:00,CS77055,relict,Y,grn_circle
9555,93.5,10.246950766,100,14.16568624,Monsanto,IP-Mar-1,ESP,,39.58,-3.93,Carlos Alonso-Blanco,2003-12-31 0:00:00,CS77068,relict,Y,grn_circle
9556,76.25,10.1447851957,65,8.326663998,Monsanto,IP-Men-2,ESP,,39.66,-4.34,Xavier Picó,00/01/2004,CS77081,spain,,pink_circle
9557,107.25,3.4034296428,112,NA,Monsanto,IP-Moa-0,ESP,,42.46,0.7,Carlos Alonso-Blanco,00/01/2004,CS77102,spain,,pink_circle
9558,96.5,3.6968455021,114.6666667,7.767453465,Monsanto,IP-Moc-11,ESP,,41.57,-5.64,Carlos Alonso-Blanco,00/01/2004,CS77103,admixed,,forbidden
9559,56.75,2.3629078131,66.5,26.85144316,Monsanto,IP-Mon-5,ESP,,38.06,-4.38,Carlos Alonso-Blanco,00/01/2004,CS77107,admixed,,forbidden
9560,69.25,7.9320026895,53.75,10.68877916,Monsanto,IP-Mot-0,ESP,,38.19,-6.24,Carlos Alonso-Blanco,00/01/2005,CS77109,spain,,pink_circle
9561,101,3.559026084,92,NA,Monsanto,IP-Mun-0,ESP,,40.71,-5.04,Carlos Alonso-Blanco,00/01/2006,CS77114,admixed,,forbidden
9562,93.25,5.2519837522,83.5,30.03886372,Monsanto,IP-Mur-0,ESP,,41.67,2,Xavier Picó,00/01/2003,CS77115,spain,,pink_circle
9563,80.25,5.6789083458,73.33333333,2.516611478,,IP-Nav-0,ESP,,40.42,-4.65,Carlos Alonso-Blanco,00/01/2004,,,,
9564,122.25,12.4197423484,NA,NA,Monsanto,IP-Nog-17,ESP,,40.45,-1.6,Xavier Picó,00/01/2004,CS77129,spain,,pink_circle
9565,74.5,3.5118845843,72.33333333,6.110100927,Monsanto,IP-Orb-10,ESP,,42.97,-1.23,Carlos Alonso-Blanco,00/01/2004,CS77152,admixed,,forbidden
9566,104,7.5277265271,134,NA,,IP-Oso-0,ESP,,42.44,-4.36,Carlos Alonso-Blanco,00/01/2005,,,,
9567,113,10.2306728355,103.5,3.535533906,Monsanto,IP-Pal-0,ESP,,42.34,1.3,Xavier Picó,00/01/2006,CS77159,spain,,pink_circle
9568,103.75,3.0956959368,109.5,3.696845502,Monsanto,IP-Pan-0,ESP,,42.76,-0.23,Carlos Alonso-Blanco,00/01/2005,CS77160,spain,,pink_circle
9569,99,4.6904157598,96.5,4.358898944,Monsanto,IP-Pds-1,ESP,,42.87,-6.45,Carlos Alonso-Blanco,00/01/2005,CS77166,western_europe,,blu_circle
9570,105,10.2306728355,104.6666667,13.65039682,,IP-Pob-0,ESP,,41.35,1.03,Xavier Picó,00/01/2004,,,,
9571,56.5,8.1853527719,35.25,3.304037934,Monsanto,IP-Pro-0,ESP,,43.28,-6.01,Carlos Alonso-Blanco,00/01/2001,CS78914,western_europe,,blu_circle
9572,111.25,4.5734742447,92.5,31.33156023,,IP-Pue-0,ESP,,42.75,-3.05,Carlos Alonso-Blanco,00/01/2004,,,,
9573,70.25,6.1846584384,60,5.291502622,Monsanto,IP-Rds-0,ESP,,41.86,2.99,Xavier Picó,00/01/2005,CS77206,spain,,pink_circle
9574,112,6.9761498455,NA,NA,Monsanto,IP-Rel-0,ESP,,38.6,-2.7,Carlos Alonso-Blanco,2004-12-31 0:00:00,CS77209,relict,,grn_circle
9575,118.5,5.1961524227,136,NA,,IP-Ren-6,ESP,,42.77,-4.21,Carlos Alonso-Blanco,00/01/2006,,,,
9576,106,3.1622776602,106.5,16.26345597,Monsanto,IP-Rev-0,ESP,,40.86,-4.11,Carlos Alonso-Blanco,00/01/2007,CS77213,admixed,,forbidden
9577,99.5,4.5092497528,123.5,14.8492424,Monsanto,IP-Ria-0,ESP,,42.34,2.17,Xavier Picó,00/01/2006,CS77216,spain,,pink_circle
9578,75.25,6.9462219947,59.25,3.593976442,Monsanto,IP-Sac-0,ESP,,42.13,-6.7,Carlos Alonso-Blanco,00/01/2007,CS77229,western_europe,,blu_circle
9579,77,7.2571803524,79.25,5.5,Monsanto,IP-San-10,ESP,,38.33,-3.51,Carlos Alonso-Blanco,00/01/2003,CS77232,admixed,,forbidden
9580,78.25,6.3966136875,71,4.242640687,,IP-Scm-0,ESP,,38.68,-3.57,Carlos Alonso-Blanco,00/01/2004,,,,
9581,111,7.0710678119,118.5,6.363961031,Monsanto,IP-Sdv-3,ESP,,42.84,-5.12,Carlos Alonso-Blanco,00/01/2004,CS77242,admixed,,forbidden
9582,95.75,16.8399326998,93.75,11.08677891,Monsanto,IP-Ses-0,ESP,,41.48,-1.63,Carlos Alonso-Blanco,00/01/2005,CS77244,spain,,pink_circle
9583,96.75,4.716990566,89.5,7.681145748,Monsanto,IP-Sne-0,ESP,,37.09,-3.38,Carlos Alonso-Blanco,1999-12-31 0:00:00,CS77258,relict,Y,grn_circle
9584,88.5,5.8022983952,85.5,7.85281266,Monsanto,IP-Stp-0,ESP,,41.19,-3.58,Carlos Alonso-Blanco,00/01/2003,CS77283,spain,,pink_circle
9585,52.25,3.3040379336,32,0.816496581,Monsanto,IP-Svi-0,ESP,,43.4,-7.39,Carlos Alonso-Blanco,00/01/2004,CS77287,western_europe,,blu_circle
9586,97.5,14.059397806,NA,NA,Monsanto,IP-Tam-0,ESP,,41.03,-3.27,Carlos Alonso-Blanco,00/01/2004,CS77340,spain,,pink_circle
9587,101,3.4641016151,101.75,10.46820583,Monsanto,IP-Tdc-0,ESP,,41.5,-1.88,Carlos Alonso-Blanco,00/01/2004,CS77344,spain,,pink_circle
9588,85,5.6568542495,79.33333333,17.7857621,Monsanto,IP-Tol-7,ESP,,42.11,0.6,Xavier Picó,00/01/2005,CS77371,spain,,pink_circle
9589,85.75,6.1846584384,77.33333333,5.507570547,Monsanto,IP-Tor-1,ESP,,41.6,-2.83,Carlos Alonso-Blanco,00/01/2003,CS77378,spain,,pink_circle
9590,51.25,4.2720018727,50.5,29.08034846,Monsanto,IP-Trs-0,ESP,,43.37,-5.49,Carlos Alonso-Blanco,00/01/2004,CS77387,western_europe,,blu_circle
9591,67,3.559026084,46,0.816496581,Monsanto,IP-Vad-0,ESP,,42.86,-3.59,Carlos Alonso-Blanco,00/01/2004,CS78826,admixed,,forbidden
9592,95,5.9441848334,100,1,Monsanto,IP-Vae-2,ESP,,42.1,-5.44,Carlos Alonso-Blanco,00/01/2004,CS78827,admixed,,forbidden
9593,109.5,4.6547466813,109,7.393691004,Monsanto,IP-Vaz-0,ESP,,42.26,-2.99,Carlos Alonso-Blanco,00/01/2005,CS78836,spain,,pink_circle
9594,95,2.5819888975,110.6666667,10.26320288,Monsanto,IP-Vdm-0,ESP,,42.04,1.01,Carlos Alonso-Blanco,00/01/2006,CS78837,spain,,pink_circle
9595,80.5,3.109126351,66.75,1.892969449,Monsanto,IP-Vdt-0,ESP,,40.89,-5.5,Carlos Alonso-Blanco,00/01/2004,CS78838,admixed,,forbidden
9596,73,2.4494897428,61,2.160246899,Monsanto,IP-Ver-5,ESP,,41.95,-7.45,Carlos Alonso-Blanco,00/01/2005,CS78841,admixed,,forbidden
9597,69.75,3.8622100754,60.66666667,7.637626158,Monsanto,IP-Vig-1,ESP,,42.31,-2.53,Carlos Alonso-Blanco,00/01/2003,CS78843,spain,,pink_circle
9598,87,4.7609522857,91,10.14889157,Monsanto,IP-Vim-0,ESP,,41.88,-6.51,Carlos Alonso-Blanco,2005-12-31 0:00:00,CS78844,relict,Y,grn_circle
9599,84.75,8.995369179,90.25,1.258305739,Monsanto,IP-Vin-0,ESP,,42.8,-5.77,Carlos Alonso-Blanco,00/01/2005,CS78846,western_europe,,blu_circle
9600,89.5,8.5049005481,73,9.38083152,Monsanto,IP-Vis-0,ESP,,39.85,-6.04,Carlos Alonso-Blanco,2005-12-31 0:00:00,CS78848,relict,Y,grn_circle
9601,97,2.4494897428,77,28.31960452,Monsanto,IP-Voz-0,ESP,,41.85,-1.88,Carlos Alonso-Blanco,00/01/2004,CS78849,spain,,pink_circle
9602,77.25,3.5939764421,75.33333333,3.214550254,Monsanto,IP-Vpa-1,ESP,,40.5,-3.96,Carlos Alonso-Blanco,00/01/2004,CS78850,spain,,pink_circle
9603,96,4,98,7.527726527,,IP-Vpe-3,ESP,,42.83,-4.72,Carlos Alonso-Blanco,00/01/2004,,,,
9604,109.25,4.7871355388,134.6666667,7.371114796,,IP-Yan-1,ESP,,42.1,-2.35,Carlos Alonso-Blanco,00/01/2005,,,,
9605,104,5.5976185412,115.5,5.446711546,,IP-Zar-0,ESP,,40.55,-4.19,Carlos Alonso-Blanco,00/01/2005,,,,
9606,63,2.4494897428,41,1.632993162,Monsanto,Aitba-1,MAR,,31.48,-7.45,0,1999-12-30 0:00:00,CS76649,relict,,grn_circle
9607,88.75,4.7871355388,107.6666667,2.309401077,Monsanto,Panik-1,RUS,,53.05,52.15,0,12/30/99,CS77161,asia,,purple_circle
9608,58,3.7416573868,45.25,2.5,Monsanto,Karag-2,RUS,,51.37,59.44,0,12/30/99,CS76961,asia,,purple_circle
9609,74.5,8.7368949481,51,12.67543556,Monsanto,Adam-1,RUS,,51.41,59.98,0,12/30/99,CS76645,asia,,purple_circle
9610,82.25,7.8049129826,69.5,2.081665999,Monsanto,Lesno-4,RUS,,53.04,51.96,0,12/30/99,CS77034,asia,,purple_circle
9611,73.5,8.1853527719,68,2.828427125,Monsanto,Lesno-1,RUS,,53.04,51.9,0,12/30/99,CS77032,asia,,purple_circle
9612,86.5,3.109126351,71.5,5.196152423,Monsanto,Lesno-2,RUS,,53.04,51.94,0,12/30/99,CS77033,asia,,purple_circle
